[
  {
    "slug": "zielona-gora",
    "name": "Zielona Góra",
    "province": "lubuskie",
    "lat": 51.927623,
    "lng": 15.529186,
    "isActive": true
  },
  {
    "slug": "aleksandrow-kujawski",
    "name": "Aleksandrów Kujawski",
    "province": "kujawsko-pomorskie",
    "lat": 52.876433,
    "lng": 18.700433,
    "isActive": false
  },
  {
    "slug": "aleksandrow-lodzki",
    "name": "Aleksandrów Łódzki",
    "province": "łódzkie",
    "lat": 51.81602,
    "lng": 19.303808,
    "isActive": false
  },
  {
    "slug": "alwernia",
    "name": "Alwernia",
    "province": "małopolskie",
    "lat": 50.056381,
    "lng": 19.535017,
    "isActive": false
  },
  {
    "slug": "andrychow",
    "name": "Andrychów",
    "province": "małopolskie",
    "lat": 49.853807,
    "lng": 19.339295,
    "isActive": false
  },
  {
    "slug": "annopol",
    "name": "Annopol",
    "province": "lubelskie",
    "lat": 50.892092,
    "lng": 21.867484,
    "isActive": false
  },
  {
    "slug": "augustow",
    "name": "Augustów",
    "province": "podlaskie",
    "lat": 53.844897,
    "lng": 23.009893,
    "isActive": false
  },
  {
    "slug": "babimost",
    "name": "Babimost",
    "province": "lubuskie",
    "lat": 52.164728,
    "lng": 15.828776,
    "isActive": false
  },
  {
    "slug": "baborow",
    "name": "Baborów",
    "province": "opolskie",
    "lat": 50.163264,
    "lng": 17.985241,
    "isActive": false
  },
  {
    "slug": "baranow-sandomierski",
    "name": "Baranów Sandomierski",
    "province": "podkarpackie",
    "lat": 50.493447,
    "lng": 21.537111,
    "isActive": false
  },
  {
    "slug": "barcin",
    "name": "Barcin",
    "province": "kujawsko-pomorskie",
    "lat": 52.864021,
    "lng": 17.939943,
    "isActive": false
  },
  {
    "slug": "barczewo",
    "name": "Barczewo",
    "province": "warmińsko-mazurskie",
    "lat": 53.835139,
    "lng": 20.690873,
    "isActive": false
  },
  {
    "slug": "bardo",
    "name": "Bardo",
    "province": "dolnośląskie",
    "lat": 50.500703,
    "lng": 16.747516,
    "isActive": false
  },
  {
    "slug": "barlinek",
    "name": "Barlinek",
    "province": "zachodniopomorskie",
    "lat": 52.997458,
    "lng": 15.208931,
    "isActive": false
  },
  {
    "slug": "bartoszyce",
    "name": "Bartoszyce",
    "province": "warmińsko-mazurskie",
    "lat": 54.253431,
    "lng": 20.810384,
    "isActive": false
  },
  {
    "slug": "barwice",
    "name": "Barwice",
    "province": "zachodniopomorskie",
    "lat": 53.742945,
    "lng": 16.351303,
    "isActive": false
  },
  {
    "slug": "belchatow",
    "name": "Bełchatów",
    "province": "łódzkie",
    "lat": 51.354579,
    "lng": 19.362703,
    "isActive": false
  },
  {
    "slug": "belzyce",
    "name": "Bełżyce",
    "province": "lubelskie",
    "lat": 51.166216,
    "lng": 22.265324,
    "isActive": false
  },
  {
    "slug": "bedzin",
    "name": "Będzin",
    "province": "śląskie",
    "lat": 50.335706,
    "lng": 19.123989,
    "isActive": false
  },
  {
    "slug": "biala",
    "name": "Biała",
    "province": "opolskie",
    "lat": 50.383636,
    "lng": 17.670121,
    "isActive": false
  },
  {
    "slug": "biala-piska",
    "name": "Biała Piska",
    "province": "warmińsko-mazurskie",
    "lat": 53.611452,
    "lng": 22.06483,
    "isActive": false
  },
  {
    "slug": "biala-podlaska",
    "name": "Biała Podlaska",
    "province": "lubelskie",
    "lat": 52.02902,
    "lng": 23.138281,
    "isActive": false
  },
  {
    "slug": "biala-rawska",
    "name": "Biała Rawska",
    "province": "łódzkie",
    "lat": 51.798429,
    "lng": 20.47409,
    "isActive": false
  },
  {
    "slug": "bialaczow",
    "name": "Białaczów",
    "province": "łódzkie",
    "lat": 51.290988,
    "lng": 20.282267,
    "isActive": false
  },
  {
    "slug": "bialobrzegi",
    "name": "Białobrzegi",
    "province": "mazowieckie",
    "lat": 51.647691,
    "lng": 20.943274,
    "isActive": false
  },
  {
    "slug": "bialogard",
    "name": "Białogard",
    "province": "zachodniopomorskie",
    "lat": 54.014051,
    "lng": 15.975629,
    "isActive": false
  },
  {
    "slug": "bialy-bor",
    "name": "Biały Bór",
    "province": "zachodniopomorskie",
    "lat": 53.875242,
    "lng": 16.842909,
    "isActive": false
  },
  {
    "slug": "bialystok",
    "name": "Białystok",
    "province": "podlaskie",
    "lat": 53.127598,
    "lng": 23.156495,
    "isActive": false
  },
  {
    "slug": "biecz",
    "name": "Biecz",
    "province": "małopolskie",
    "lat": 49.732251,
    "lng": 21.25902,
    "isActive": false
  },
  {
    "slug": "bielawa",
    "name": "Bielawa",
    "province": "dolnośląskie",
    "lat": 50.675471,
    "lng": 16.602826,
    "isActive": false
  },
  {
    "slug": "bielsk-podlaski",
    "name": "Bielsk Podlaski",
    "province": "podlaskie",
    "lat": 52.764218,
    "lng": 23.190266,
    "isActive": false
  },
  {
    "slug": "bielsko-biala",
    "name": "Bielsko-Biała",
    "province": "śląskie",
    "lat": 49.812061,
    "lng": 19.03878,
    "isActive": false
  },
  {
    "slug": "bierun",
    "name": "Bieruń",
    "province": "śląskie",
    "lat": 50.084379,
    "lng": 19.143632,
    "isActive": false
  },
  {
    "slug": "bierutow",
    "name": "Bierutów",
    "province": "dolnośląskie",
    "lat": 51.129187,
    "lng": 17.545863,
    "isActive": false
  },
  {
    "slug": "biezun",
    "name": "Bieżuń",
    "province": "mazowieckie",
    "lat": 52.962889,
    "lng": 19.877725,
    "isActive": false
  },
  {
    "slug": "bilgoraj",
    "name": "Biłgoraj",
    "province": "lubelskie",
    "lat": 50.539011,
    "lng": 22.711695,
    "isActive": false
  },
  {
    "slug": "bircza",
    "name": "Bircza",
    "province": "podkarpackie",
    "lat": 49.689165,
    "lng": 22.481414,
    "isActive": false
  },
  {
    "slug": "biskupiec",
    "name": "Biskupiec",
    "province": "warmińsko-mazurskie",
    "lat": 53.862133,
    "lng": 20.952195,
    "isActive": false
  },
  {
    "slug": "bisztynek",
    "name": "Bisztynek",
    "province": "warmińsko-mazurskie",
    "lat": 54.086035,
    "lng": 20.907277,
    "isActive": false
  },
  {
    "slug": "blachownia",
    "name": "Blachownia",
    "province": "śląskie",
    "lat": 50.796839,
    "lng": 18.94672,
    "isActive": false
  },
  {
    "slug": "blaszki",
    "name": "Błaszki",
    "province": "łódzkie",
    "lat": 51.652401,
    "lng": 18.441739,
    "isActive": false
  },
  {
    "slug": "blazowa",
    "name": "Błażowa",
    "province": "podkarpackie",
    "lat": 49.886553,
    "lng": 22.101991,
    "isActive": false
  },
  {
    "slug": "blonie",
    "name": "Błonie",
    "province": "mazowieckie",
    "lat": 52.195484,
    "lng": 20.622809,
    "isActive": false
  },
  {
    "slug": "bobolice",
    "name": "Bobolice",
    "province": "zachodniopomorskie",
    "lat": 53.958217,
    "lng": 16.58665,
    "isActive": false
  },
  {
    "slug": "bobowa",
    "name": "Bobowa",
    "province": "małopolskie",
    "lat": 49.711927,
    "lng": 20.955984,
    "isActive": false
  },
  {
    "slug": "bobrowniki",
    "name": "Bobrowniki",
    "province": "kujawsko-pomorskie",
    "lat": 52.776295,
    "lng": 18.95668,
    "isActive": false
  },
  {
    "slug": "bochnia",
    "name": "Bochnia",
    "province": "małopolskie",
    "lat": 49.974731,
    "lng": 20.429361,
    "isActive": false
  },
  {
    "slug": "bodzanow",
    "name": "Bodzanów",
    "province": "mazowieckie",
    "lat": 52.507603,
    "lng": 20.028033,
    "isActive": false
  },
  {
    "slug": "bodzentyn",
    "name": "Bodzentyn",
    "province": "świętokrzyskie",
    "lat": 50.945655,
    "lng": 20.958741,
    "isActive": false
  },
  {
    "slug": "bogatynia",
    "name": "Bogatynia",
    "province": "dolnośląskie",
    "lat": 50.922347,
    "lng": 14.938376,
    "isActive": false
  },
  {
    "slug": "bogoria",
    "name": "Bogoria",
    "province": "świętokrzyskie",
    "lat": 50.644057,
    "lng": 21.247604,
    "isActive": false
  },
  {
    "slug": "boguchwala",
    "name": "Boguchwała",
    "province": "podkarpackie",
    "lat": 49.983683,
    "lng": 21.936695,
    "isActive": false
  },
  {
    "slug": "boguszow-gorce",
    "name": "Boguszów-Gorce",
    "province": "dolnośląskie",
    "lat": 50.7551,
    "lng": 16.205505,
    "isActive": false
  },
  {
    "slug": "bojanowo",
    "name": "Bojanowo",
    "province": "wielkopolskie",
    "lat": 51.702856,
    "lng": 16.757947,
    "isActive": false
  },
  {
    "slug": "boleslawiec",
    "name": "Bolesławiec",
    "province": "dolnośląskie",
    "lat": 51.262169,
    "lng": 15.55163,
    "isActive": false
  },
  {
    "slug": "boleslawiec-lodzkie",
    "name": "Bolesławiec",
    "province": "łódzkie",
    "lat": 51.19538,
    "lng": 18.209082,
    "isActive": false
  },
  {
    "slug": "bolimow",
    "name": "Bolimów",
    "province": "łódzkie",
    "lat": 52.073967,
    "lng": 20.163275,
    "isActive": false
  },
  {
    "slug": "bolkow",
    "name": "Bolków",
    "province": "dolnośląskie",
    "lat": 50.920607,
    "lng": 16.100639,
    "isActive": false
  },
  {
    "slug": "borek-wielkopolski",
    "name": "Borek Wielkopolski",
    "province": "wielkopolskie",
    "lat": 51.91137,
    "lng": 17.228884,
    "isActive": false
  },
  {
    "slug": "borne-sulinowo",
    "name": "Borne Sulinowo",
    "province": "zachodniopomorskie",
    "lat": 53.573667,
    "lng": 16.53051,
    "isActive": false
  },
  {
    "slug": "braniewo",
    "name": "Braniewo",
    "province": "warmińsko-mazurskie",
    "lat": 54.379451,
    "lng": 19.82084,
    "isActive": false
  },
  {
    "slug": "bransk",
    "name": "Brańsk",
    "province": "podlaskie",
    "lat": 52.767756,
    "lng": 22.848094,
    "isActive": false
  },
  {
    "slug": "brodnica",
    "name": "Brodnica",
    "province": "kujawsko-pomorskie",
    "lat": 53.257961,
    "lng": 19.406477,
    "isActive": false
  },
  {
    "slug": "brody",
    "name": "Brody",
    "province": "lubuskie",
    "lat": 51.787466,
    "lng": 14.762856,
    "isActive": false
  },
  {
    "slug": "brok",
    "name": "Brok",
    "province": "mazowieckie",
    "lat": 52.69851,
    "lng": 21.880314,
    "isActive": false
  },
  {
    "slug": "brusy",
    "name": "Brusy",
    "province": "pomorskie",
    "lat": 53.886064,
    "lng": 17.723092,
    "isActive": false
  },
  {
    "slug": "brwinow",
    "name": "Brwinów",
    "province": "mazowieckie",
    "lat": 52.150682,
    "lng": 20.726087,
    "isActive": false
  },
  {
    "slug": "brzeg",
    "name": "Brzeg",
    "province": "opolskie",
    "lat": 50.858877,
    "lng": 17.462846,
    "isActive": false
  },
  {
    "slug": "brzeg-dolny",
    "name": "Brzeg Dolny",
    "province": "dolnośląskie",
    "lat": 51.268419,
    "lng": 16.719603,
    "isActive": false
  },
  {
    "slug": "brzesko",
    "name": "Brzesko",
    "province": "małopolskie",
    "lat": 49.974532,
    "lng": 20.610792,
    "isActive": false
  },
  {
    "slug": "brzeszcze",
    "name": "Brzeszcze",
    "province": "małopolskie",
    "lat": 49.990733,
    "lng": 19.145799,
    "isActive": false
  },
  {
    "slug": "brzesc-kujawski",
    "name": "Brześć Kujawski",
    "province": "kujawsko-pomorskie",
    "lat": 52.604518,
    "lng": 18.900914,
    "isActive": false
  },
  {
    "slug": "brzeziny",
    "name": "Brzeziny",
    "province": "łódzkie",
    "lat": 51.800661,
    "lng": 19.749435,
    "isActive": false
  },
  {
    "slug": "brzostek",
    "name": "Brzostek",
    "province": "podkarpackie",
    "lat": 49.879826,
    "lng": 21.408361,
    "isActive": false
  },
  {
    "slug": "brzozow",
    "name": "Brzozów",
    "province": "podkarpackie",
    "lat": 49.697744,
    "lng": 22.019457,
    "isActive": false
  },
  {
    "slug": "budzyn",
    "name": "Budzyń",
    "province": "wielkopolskie",
    "lat": 52.892541,
    "lng": 16.990084,
    "isActive": false
  },
  {
    "slug": "buk",
    "name": "Buk",
    "province": "wielkopolskie",
    "lat": 52.352792,
    "lng": 16.521656,
    "isActive": false
  },
  {
    "slug": "bukowno",
    "name": "Bukowno",
    "province": "małopolskie",
    "lat": 50.260986,
    "lng": 19.417138,
    "isActive": false
  },
  {
    "slug": "busko-zdroj",
    "name": "Busko-Zdrój",
    "province": "świętokrzyskie",
    "lat": 50.470299,
    "lng": 20.716431,
    "isActive": false
  },
  {
    "slug": "bychawa",
    "name": "Bychawa",
    "province": "lubelskie",
    "lat": 51.017274,
    "lng": 22.534894,
    "isActive": false
  },
  {
    "slug": "byczyna",
    "name": "Byczyna",
    "province": "opolskie",
    "lat": 51.112415,
    "lng": 18.214788,
    "isActive": false
  },
  {
    "slug": "bydgoszcz",
    "name": "Bydgoszcz",
    "province": "kujawsko-pomorskie",
    "lat": 53.129727,
    "lng": 18.038381,
    "isActive": false
  },
  {
    "slug": "bystrzyca-klodzka",
    "name": "Bystrzyca Kłodzka",
    "province": "dolnośląskie",
    "lat": 50.295351,
    "lng": 16.649944,
    "isActive": false
  },
  {
    "slug": "bytom",
    "name": "Bytom",
    "province": "śląskie",
    "lat": 50.365727,
    "lng": 18.87634,
    "isActive": false
  },
  {
    "slug": "bytom-odrzanski",
    "name": "Bytom Odrzański",
    "province": "lubuskie",
    "lat": 51.728172,
    "lng": 15.824124,
    "isActive": false
  },
  {
    "slug": "bytow",
    "name": "Bytów",
    "province": "pomorskie",
    "lat": 54.179849,
    "lng": 17.500617,
    "isActive": false
  },
  {
    "slug": "cedynia",
    "name": "Cedynia",
    "province": "zachodniopomorskie",
    "lat": 52.876911,
    "lng": 14.207159,
    "isActive": false
  },
  {
    "slug": "ceglow",
    "name": "Cegłów",
    "province": "mazowieckie",
    "lat": 52.147178,
    "lng": 21.745284,
    "isActive": false
  },
  {
    "slug": "chelm",
    "name": "Chełm",
    "province": "lubelskie",
    "lat": 51.135601,
    "lng": 23.496203,
    "isActive": false
  },
  {
    "slug": "chelmek",
    "name": "Chełmek",
    "province": "małopolskie",
    "lat": 50.111155,
    "lng": 19.250043,
    "isActive": false
  },
  {
    "slug": "chelmno",
    "name": "Chełmno",
    "province": "kujawsko-pomorskie",
    "lat": 53.352402,
    "lng": 18.425496,
    "isActive": false
  },
  {
    "slug": "chelmza",
    "name": "Chełmża",
    "province": "kujawsko-pomorskie",
    "lat": 53.192392,
    "lng": 18.608813,
    "isActive": false
  },
  {
    "slug": "checiny",
    "name": "Chęciny",
    "province": "świętokrzyskie",
    "lat": 50.811122,
    "lng": 20.467102,
    "isActive": false
  },
  {
    "slug": "chmielnik",
    "name": "Chmielnik",
    "province": "świętokrzyskie",
    "lat": 50.611509,
    "lng": 20.748607,
    "isActive": false
  },
  {
    "slug": "chocianow",
    "name": "Chocianów",
    "province": "dolnośląskie",
    "lat": 51.418318,
    "lng": 15.906169,
    "isActive": false
  },
  {
    "slug": "chociwel",
    "name": "Chociwel",
    "province": "zachodniopomorskie",
    "lat": 53.466374,
    "lng": 15.342241,
    "isActive": false
  },
  {
    "slug": "chocz",
    "name": "Chocz",
    "province": "wielkopolskie",
    "lat": 51.982957,
    "lng": 17.872695,
    "isActive": false
  },
  {
    "slug": "chodecz",
    "name": "Chodecz",
    "province": "kujawsko-pomorskie",
    "lat": 52.408249,
    "lng": 19.028018,
    "isActive": false
  },
  {
    "slug": "chodziez",
    "name": "Chodzież",
    "province": "wielkopolskie",
    "lat": 52.99497,
    "lng": 16.915715,
    "isActive": false
  },
  {
    "slug": "chojna",
    "name": "Chojna",
    "province": "zachodniopomorskie",
    "lat": 52.956257,
    "lng": 14.428766,
    "isActive": false
  },
  {
    "slug": "chojnice",
    "name": "Chojnice",
    "province": "pomorskie",
    "lat": 53.69997,
    "lng": 17.560158,
    "isActive": false
  },
  {
    "slug": "chojnow",
    "name": "Chojnów",
    "province": "dolnośląskie",
    "lat": 51.272214,
    "lng": 15.935727,
    "isActive": false
  },
  {
    "slug": "choroszcz",
    "name": "Choroszcz",
    "province": "podlaskie",
    "lat": 53.136506,
    "lng": 22.987445,
    "isActive": false
  },
  {
    "slug": "chorzele",
    "name": "Chorzele",
    "province": "mazowieckie",
    "lat": 53.260366,
    "lng": 20.91482,
    "isActive": false
  },
  {
    "slug": "chorzow",
    "name": "Chorzów",
    "province": "śląskie",
    "lat": 50.288479,
    "lng": 18.962897,
    "isActive": false
  },
  {
    "slug": "choszczno",
    "name": "Choszczno",
    "province": "zachodniopomorskie",
    "lat": 53.168721,
    "lng": 15.427001,
    "isActive": false
  },
  {
    "slug": "chrzanow",
    "name": "Chrzanów",
    "province": "małopolskie",
    "lat": 50.129189,
    "lng": 19.35945,
    "isActive": false
  },
  {
    "slug": "ciechanowiec",
    "name": "Ciechanowiec",
    "province": "podlaskie",
    "lat": 52.676307,
    "lng": 22.507273,
    "isActive": false
  },
  {
    "slug": "ciechanow",
    "name": "Ciechanów",
    "province": "mazowieckie",
    "lat": 52.871085,
    "lng": 20.614905,
    "isActive": false
  },
  {
    "slug": "ciechocinek",
    "name": "Ciechocinek",
    "province": "kujawsko-pomorskie",
    "lat": 52.884338,
    "lng": 18.794961,
    "isActive": false
  },
  {
    "slug": "ciepielow",
    "name": "Ciepielów",
    "province": "mazowieckie",
    "lat": 51.24208,
    "lng": 21.576169,
    "isActive": false
  },
  {
    "slug": "cieszanow",
    "name": "Cieszanów",
    "province": "podkarpackie",
    "lat": 50.245316,
    "lng": 23.13093,
    "isActive": false
  },
  {
    "slug": "cieszyn",
    "name": "Cieszyn",
    "province": "śląskie",
    "lat": 49.755781,
    "lng": 18.65144,
    "isActive": false
  },
  {
    "slug": "ciezkowice",
    "name": "Ciężkowice",
    "province": "małopolskie",
    "lat": 49.786517,
    "lng": 20.988796,
    "isActive": false
  },
  {
    "slug": "cybinka",
    "name": "Cybinka",
    "province": "lubuskie",
    "lat": 52.1945,
    "lng": 14.798822,
    "isActive": false
  },
  {
    "slug": "czaplinek",
    "name": "Czaplinek",
    "province": "zachodniopomorskie",
    "lat": 53.557082,
    "lng": 16.225695,
    "isActive": false
  },
  {
    "slug": "czarna-bialostocka",
    "name": "Czarna Białostocka",
    "province": "podlaskie",
    "lat": 53.302357,
    "lng": 23.267936,
    "isActive": false
  },
  {
    "slug": "czarna-woda",
    "name": "Czarna Woda",
    "province": "pomorskie",
    "lat": 53.840585,
    "lng": 18.111634,
    "isActive": false
  },
  {
    "slug": "czarne",
    "name": "Czarne",
    "province": "pomorskie",
    "lat": 53.671453,
    "lng": 16.92384,
    "isActive": false
  },
  {
    "slug": "czarnkow",
    "name": "Czarnków",
    "province": "wielkopolskie",
    "lat": 52.901212,
    "lng": 16.551841,
    "isActive": false
  },
  {
    "slug": "czarny-dunajec",
    "name": "Czarny Dunajec",
    "province": "małopolskie",
    "lat": 49.446954,
    "lng": 19.839357,
    "isActive": false
  },
  {
    "slug": "czchow",
    "name": "Czchów",
    "province": "małopolskie",
    "lat": 49.82748,
    "lng": 20.661062,
    "isActive": false
  },
  {
    "slug": "czechowice-dziedzice",
    "name": "Czechowice-Dziedzice",
    "province": "śląskie",
    "lat": 49.904085,
    "lng": 19.000511,
    "isActive": false
  },
  {
    "slug": "czeladz",
    "name": "Czeladź",
    "province": "śląskie",
    "lat": 50.319162,
    "lng": 19.08231,
    "isActive": false
  },
  {
    "slug": "czemierniki",
    "name": "Czemierniki",
    "province": "lubelskie",
    "lat": 51.676637,
    "lng": 22.642111,
    "isActive": false
  },
  {
    "slug": "czempin",
    "name": "Czempiń",
    "province": "wielkopolskie",
    "lat": 52.139678,
    "lng": 16.762504,
    "isActive": false
  },
  {
    "slug": "czerniejewo",
    "name": "Czerniejewo",
    "province": "wielkopolskie",
    "lat": 52.431521,
    "lng": 17.480868,
    "isActive": false
  },
  {
    "slug": "czersk",
    "name": "Czersk",
    "province": "pomorskie",
    "lat": 53.78997,
    "lng": 17.977319,
    "isActive": false
  },
  {
    "slug": "czerwiensk",
    "name": "Czerwieńsk",
    "province": "lubuskie",
    "lat": 52.018508,
    "lng": 15.403687,
    "isActive": false
  },
  {
    "slug": "czerwinsk-nad-wisla",
    "name": "Czerwińsk nad Wisłą",
    "province": "mazowieckie",
    "lat": 52.403806,
    "lng": 20.31738,
    "isActive": false
  },
  {
    "slug": "czerwionka-leszczyny",
    "name": "Czerwionka-Leszczyny",
    "province": "śląskie",
    "lat": 50.164843,
    "lng": 18.680233,
    "isActive": false
  },
  {
    "slug": "czestochowa",
    "name": "Częstochowa",
    "province": "śląskie",
    "lat": 50.809635,
    "lng": 19.122219,
    "isActive": false
  },
  {
    "slug": "czlopa",
    "name": "Człopa",
    "province": "zachodniopomorskie",
    "lat": 53.083766,
    "lng": 16.133116,
    "isActive": false
  },
  {
    "slug": "czluchow",
    "name": "Człuchów",
    "province": "pomorskie",
    "lat": 53.664779,
    "lng": 17.368084,
    "isActive": false
  },
  {
    "slug": "czyzew",
    "name": "Czyżew",
    "province": "podlaskie",
    "lat": 52.79388,
    "lng": 22.321485,
    "isActive": false
  },
  {
    "slug": "cmielow",
    "name": "Ćmielów",
    "province": "świętokrzyskie",
    "lat": 50.895903,
    "lng": 21.525406,
    "isActive": false
  },
  {
    "slug": "daleszyce",
    "name": "Daleszyce",
    "province": "świętokrzyskie",
    "lat": 50.803368,
    "lng": 20.801615,
    "isActive": false
  },
  {
    "slug": "darlowo",
    "name": "Darłowo",
    "province": "zachodniopomorskie",
    "lat": 54.428735,
    "lng": 16.409811,
    "isActive": false
  },
  {
    "slug": "dabie",
    "name": "Dąbie",
    "province": "wielkopolskie",
    "lat": 52.099215,
    "lng": 18.823767,
    "isActive": false
  },
  {
    "slug": "dabrowa-bialostocka",
    "name": "Dąbrowa Białostocka",
    "province": "podlaskie",
    "lat": 53.648265,
    "lng": 23.328993,
    "isActive": false
  },
  {
    "slug": "dabrowa-gornicza",
    "name": "Dąbrowa Górnicza",
    "province": "śląskie",
    "lat": 50.369745,
    "lng": 19.321354,
    "isActive": false
  },
  {
    "slug": "dabrowa-tarnowska",
    "name": "Dąbrowa Tarnowska",
    "province": "małopolskie",
    "lat": 50.169652,
    "lng": 20.994023,
    "isActive": false
  },
  {
    "slug": "dabrowice",
    "name": "Dąbrowice",
    "province": "łódzkie",
    "lat": 52.311068,
    "lng": 19.085402,
    "isActive": false
  },
  {
    "slug": "debrzno",
    "name": "Debrzno",
    "province": "pomorskie",
    "lat": 53.543303,
    "lng": 17.245134,
    "isActive": false
  },
  {
    "slug": "debica",
    "name": "Dębica",
    "province": "podkarpackie",
    "lat": 50.045955,
    "lng": 21.416003,
    "isActive": false
  },
  {
    "slug": "deblin",
    "name": "Dęblin",
    "province": "lubelskie",
    "lat": 51.567256,
    "lng": 21.874336,
    "isActive": false
  },
  {
    "slug": "debno",
    "name": "Dębno",
    "province": "zachodniopomorskie",
    "lat": 52.741508,
    "lng": 14.695138,
    "isActive": false
  },
  {
    "slug": "dobczyce",
    "name": "Dobczyce",
    "province": "małopolskie",
    "lat": 49.879513,
    "lng": 20.086149,
    "isActive": false
  },
  {
    "slug": "dobiegniew",
    "name": "Dobiegniew",
    "province": "lubuskie",
    "lat": 52.968609,
    "lng": 15.764942,
    "isActive": false
  },
  {
    "slug": "dobra",
    "name": "Dobra",
    "province": "zachodniopomorskie",
    "lat": 53.581276,
    "lng": 15.304902,
    "isActive": false
  },
  {
    "slug": "dobra-wielkopolskie",
    "name": "Dobra",
    "province": "wielkopolskie",
    "lat": 51.913945,
    "lng": 18.610099,
    "isActive": false
  },
  {
    "slug": "dobre",
    "name": "Dobre",
    "province": "mazowieckie",
    "lat": 52.321223,
    "lng": 21.672635,
    "isActive": false
  },
  {
    "slug": "dobre-miasto",
    "name": "Dobre Miasto",
    "province": "warmińsko-mazurskie",
    "lat": 53.98701,
    "lng": 20.397869,
    "isActive": false
  },
  {
    "slug": "dobrodzien",
    "name": "Dobrodzień",
    "province": "opolskie",
    "lat": 50.716799,
    "lng": 18.435484,
    "isActive": false
  },
  {
    "slug": "dobrzany",
    "name": "Dobrzany",
    "province": "zachodniopomorskie",
    "lat": 53.358165,
    "lng": 15.433416,
    "isActive": false
  },
  {
    "slug": "dobrzyca",
    "name": "Dobrzyca",
    "province": "wielkopolskie",
    "lat": 51.860977,
    "lng": 17.599057,
    "isActive": false
  },
  {
    "slug": "dobrzyn-nad-wisla",
    "name": "Dobrzyń nad Wisłą",
    "province": "kujawsko-pomorskie",
    "lat": 52.640173,
    "lng": 19.319114,
    "isActive": false
  },
  {
    "slug": "dolsk",
    "name": "Dolsk",
    "province": "wielkopolskie",
    "lat": 51.982469,
    "lng": 17.057745,
    "isActive": false
  },
  {
    "slug": "drawno",
    "name": "Drawno",
    "province": "zachodniopomorskie",
    "lat": 53.217915,
    "lng": 15.756172,
    "isActive": false
  },
  {
    "slug": "drawsko-pomorskie",
    "name": "Drawsko Pomorskie",
    "province": "zachodniopomorskie",
    "lat": 53.533646,
    "lng": 15.806855,
    "isActive": false
  },
  {
    "slug": "drezdenko",
    "name": "Drezdenko",
    "province": "lubuskie",
    "lat": 52.844623,
    "lng": 15.841279,
    "isActive": false
  },
  {
    "slug": "drobin",
    "name": "Drobin",
    "province": "mazowieckie",
    "lat": 52.742049,
    "lng": 19.989697,
    "isActive": false
  },
  {
    "slug": "drohiczyn",
    "name": "Drohiczyn",
    "province": "podlaskie",
    "lat": 52.406328,
    "lng": 22.653877,
    "isActive": false
  },
  {
    "slug": "drzewica",
    "name": "Drzewica",
    "province": "łódzkie",
    "lat": 51.446538,
    "lng": 20.471113,
    "isActive": false
  },
  {
    "slug": "dubiecko",
    "name": "Dubiecko",
    "province": "podkarpackie",
    "lat": 49.831244,
    "lng": 22.396233,
    "isActive": false
  },
  {
    "slug": "dukla",
    "name": "Dukla",
    "province": "podkarpackie",
    "lat": 49.557524,
    "lng": 21.675361,
    "isActive": false
  },
  {
    "slug": "duszniki-zdroj",
    "name": "Duszniki-Zdrój",
    "province": "dolnośląskie",
    "lat": 50.370361,
    "lng": 16.381847,
    "isActive": false
  },
  {
    "slug": "dynow",
    "name": "Dynów",
    "province": "podkarpackie",
    "lat": 49.813805,
    "lng": 22.234036,
    "isActive": false
  },
  {
    "slug": "dzialdowo",
    "name": "Działdowo",
    "province": "warmińsko-mazurskie",
    "lat": 53.240222,
    "lng": 20.1807,
    "isActive": false
  },
  {
    "slug": "dzialoszyce",
    "name": "Działoszyce",
    "province": "świętokrzyskie",
    "lat": 50.36665,
    "lng": 20.350773,
    "isActive": false
  },
  {
    "slug": "dzialoszyn",
    "name": "Działoszyn",
    "province": "łódzkie",
    "lat": 51.117628,
    "lng": 18.870346,
    "isActive": false
  },
  {
    "slug": "dzierzgon",
    "name": "Dzierzgoń",
    "province": "pomorskie",
    "lat": 53.91732,
    "lng": 19.342435,
    "isActive": false
  },
  {
    "slug": "dzierzoniow",
    "name": "Dzierżoniów",
    "province": "dolnośląskie",
    "lat": 50.729179,
    "lng": 16.64731,
    "isActive": false
  },
  {
    "slug": "dziwnow",
    "name": "Dziwnów",
    "province": "zachodniopomorskie",
    "lat": 54.019043,
    "lng": 14.749814,
    "isActive": false
  },
  {
    "slug": "elblag",
    "name": "Elbląg",
    "province": "warmińsko-mazurskie",
    "lat": 54.198853,
    "lng": 19.434352,
    "isActive": false
  },
  {
    "slug": "elk",
    "name": "Ełk",
    "province": "warmińsko-mazurskie",
    "lat": 53.82393,
    "lng": 22.35998,
    "isActive": false
  },
  {
    "slug": "frampol",
    "name": "Frampol",
    "province": "lubelskie",
    "lat": 50.67408,
    "lng": 22.665172,
    "isActive": false
  },
  {
    "slug": "frombork",
    "name": "Frombork",
    "province": "warmińsko-mazurskie",
    "lat": 54.358325,
    "lng": 19.685649,
    "isActive": false
  },
  {
    "slug": "garwolin",
    "name": "Garwolin",
    "province": "mazowieckie",
    "lat": 51.895951,
    "lng": 21.623194,
    "isActive": false
  },
  {
    "slug": "gabin",
    "name": "Gąbin",
    "province": "mazowieckie",
    "lat": 52.40089,
    "lng": 19.730994,
    "isActive": false
  },
  {
    "slug": "gasawa",
    "name": "Gąsawa",
    "province": "kujawsko-pomorskie",
    "lat": 52.761905,
    "lng": 17.763665,
    "isActive": false
  },
  {
    "slug": "gdansk",
    "name": "Gdańsk",
    "province": "pomorskie",
    "lat": 54.428826,
    "lng": 18.749899,
    "isActive": false
  },
  {
    "slug": "gdynia",
    "name": "Gdynia",
    "province": "pomorskie",
    "lat": 54.523455,
    "lng": 18.633904,
    "isActive": false
  },
  {
    "slug": "gielniow",
    "name": "Gielniów",
    "province": "mazowieckie",
    "lat": 51.393763,
    "lng": 20.482368,
    "isActive": false
  },
  {
    "slug": "gizycko",
    "name": "Giżycko",
    "province": "warmińsko-mazurskie",
    "lat": 54.03596,
    "lng": 21.769379,
    "isActive": false
  },
  {
    "slug": "glinojeck",
    "name": "Glinojeck",
    "province": "mazowieckie",
    "lat": 52.820569,
    "lng": 20.296629,
    "isActive": false
  },
  {
    "slug": "gliwice",
    "name": "Gliwice",
    "province": "śląskie",
    "lat": 50.301176,
    "lng": 18.649657,
    "isActive": false
  },
  {
    "slug": "glogow",
    "name": "Głogów",
    "province": "dolnośląskie",
    "lat": 51.670185,
    "lng": 16.043507,
    "isActive": false
  },
  {
    "slug": "glogow-malopolski",
    "name": "Głogów Małopolski",
    "province": "podkarpackie",
    "lat": 50.151167,
    "lng": 21.954888,
    "isActive": false
  },
  {
    "slug": "glogowek",
    "name": "Głogówek",
    "province": "opolskie",
    "lat": 50.345886,
    "lng": 17.860017,
    "isActive": false
  },
  {
    "slug": "glowaczow",
    "name": "Głowaczów",
    "province": "mazowieckie",
    "lat": 51.620409,
    "lng": 21.305075,
    "isActive": false
  },
  {
    "slug": "glowno",
    "name": "Głowno",
    "province": "łódzkie",
    "lat": 51.961993,
    "lng": 19.714108,
    "isActive": false
  },
  {
    "slug": "glubczyce",
    "name": "Głubczyce",
    "province": "opolskie",
    "lat": 50.204275,
    "lng": 17.831128,
    "isActive": false
  },
  {
    "slug": "glucholazy",
    "name": "Głuchołazy",
    "province": "opolskie",
    "lat": 50.313729,
    "lng": 17.368516,
    "isActive": false
  },
  {
    "slug": "gluszyca",
    "name": "Głuszyca",
    "province": "dolnośląskie",
    "lat": 50.688635,
    "lng": 16.389186,
    "isActive": false
  },
  {
    "slug": "gniew",
    "name": "Gniew",
    "province": "pomorskie",
    "lat": 53.841072,
    "lng": 18.811325,
    "isActive": false
  },
  {
    "slug": "gniewkowo",
    "name": "Gniewkowo",
    "province": "kujawsko-pomorskie",
    "lat": 52.899902,
    "lng": 18.420918,
    "isActive": false
  },
  {
    "slug": "gniezno",
    "name": "Gniezno",
    "province": "wielkopolskie",
    "lat": 52.524872,
    "lng": 17.603341,
    "isActive": false
  },
  {
    "slug": "gogolin",
    "name": "Gogolin",
    "province": "opolskie",
    "lat": 50.488822,
    "lng": 18.022432,
    "isActive": false
  },
  {
    "slug": "golczewo",
    "name": "Golczewo",
    "province": "zachodniopomorskie",
    "lat": 53.825352,
    "lng": 14.979926,
    "isActive": false
  },
  {
    "slug": "goleniow",
    "name": "Goleniów",
    "province": "zachodniopomorskie",
    "lat": 53.560687,
    "lng": 14.838289,
    "isActive": false
  },
  {
    "slug": "golina",
    "name": "Golina",
    "province": "wielkopolskie",
    "lat": 52.246109,
    "lng": 18.095267,
    "isActive": false
  },
  {
    "slug": "golub-dobrzyn",
    "name": "Golub-Dobrzyń",
    "province": "kujawsko-pomorskie",
    "lat": 53.112231,
    "lng": 19.054137,
    "isActive": false
  },
  {
    "slug": "golancz",
    "name": "Gołańcz",
    "province": "wielkopolskie",
    "lat": 52.950736,
    "lng": 17.306793,
    "isActive": false
  },
  {
    "slug": "goldap",
    "name": "Gołdap",
    "province": "warmińsko-mazurskie",
    "lat": 54.313222,
    "lng": 22.298366,
    "isActive": false
  },
  {
    "slug": "goniadz",
    "name": "Goniądz",
    "province": "podlaskie",
    "lat": 53.489819,
    "lng": 22.73716,
    "isActive": false
  },
  {
    "slug": "goraj",
    "name": "Goraj",
    "province": "lubelskie",
    "lat": 50.715014,
    "lng": 22.644338,
    "isActive": false
  },
  {
    "slug": "gorlice",
    "name": "Gorlice",
    "province": "małopolskie",
    "lat": 49.666316,
    "lng": 21.165942,
    "isActive": false
  },
  {
    "slug": "gorzow-slaski",
    "name": "Gorzów Śląski",
    "province": "opolskie",
    "lat": 51.021031,
    "lng": 18.410687,
    "isActive": false
  },
  {
    "slug": "gorzow-wielkopolski",
    "name": "Gorzów Wielkopolski",
    "province": "lubuskie",
    "lat": 52.730556,
    "lng": 15.217154,
    "isActive": false
  },
  {
    "slug": "gostynin",
    "name": "Gostynin",
    "province": "mazowieckie",
    "lat": 52.424231,
    "lng": 19.46258,
    "isActive": false
  },
  {
    "slug": "gostyn",
    "name": "Gostyń",
    "province": "wielkopolskie",
    "lat": 51.881563,
    "lng": 17.009232,
    "isActive": false
  },
  {
    "slug": "goscino",
    "name": "Gościno",
    "province": "zachodniopomorskie",
    "lat": 54.046737,
    "lng": 15.650257,
    "isActive": false
  },
  {
    "slug": "gowarczow",
    "name": "Gowarczów",
    "province": "świętokrzyskie",
    "lat": 51.272213,
    "lng": 20.432302,
    "isActive": false
  },
  {
    "slug": "gozdnica",
    "name": "Gozdnica",
    "province": "lubuskie",
    "lat": 51.453662,
    "lng": 15.085685,
    "isActive": false
  },
  {
    "slug": "gora",
    "name": "Góra",
    "province": "dolnośląskie",
    "lat": 51.670225,
    "lng": 16.550623,
    "isActive": false
  },
  {
    "slug": "gora-kalwaria",
    "name": "Góra Kalwaria",
    "province": "mazowieckie",
    "lat": 51.981904,
    "lng": 21.197119,
    "isActive": false
  },
  {
    "slug": "gorowo-ilaweckie",
    "name": "Górowo Iławeckie",
    "province": "warmińsko-mazurskie",
    "lat": 54.288514,
    "lng": 20.488308,
    "isActive": false
  },
  {
    "slug": "gorzno",
    "name": "Górzno",
    "province": "kujawsko-pomorskie",
    "lat": 53.196639,
    "lng": 19.645653,
    "isActive": false
  },
  {
    "slug": "grabow",
    "name": "Grabów",
    "province": "łódzkie",
    "lat": 52.126232,
    "lng": 19.001044,
    "isActive": false
  },
  {
    "slug": "grabow-nad-prosna",
    "name": "Grabów nad Prosną",
    "province": "wielkopolskie",
    "lat": 51.506367,
    "lng": 18.112664,
    "isActive": false
  },
  {
    "slug": "grajewo",
    "name": "Grajewo",
    "province": "podlaskie",
    "lat": 53.640184,
    "lng": 22.450971,
    "isActive": false
  },
  {
    "slug": "grodkow",
    "name": "Grodków",
    "province": "opolskie",
    "lat": 50.694286,
    "lng": 17.380184,
    "isActive": false
  },
  {
    "slug": "grodzisk-mazowiecki",
    "name": "Grodzisk Mazowiecki",
    "province": "mazowieckie",
    "lat": 52.105217,
    "lng": 20.633201,
    "isActive": false
  },
  {
    "slug": "grodzisk-wielkopolski",
    "name": "Grodzisk Wielkopolski",
    "province": "wielkopolskie",
    "lat": 52.226182,
    "lng": 16.366037,
    "isActive": false
  },
  {
    "slug": "grojec",
    "name": "Grójec",
    "province": "mazowieckie",
    "lat": 51.868165,
    "lng": 20.872463,
    "isActive": false
  },
  {
    "slug": "grudziadz",
    "name": "Grudziądz",
    "province": "kujawsko-pomorskie",
    "lat": 53.472458,
    "lng": 18.778493,
    "isActive": false
  },
  {
    "slug": "grybow",
    "name": "Grybów",
    "province": "małopolskie",
    "lat": 49.614936,
    "lng": 20.957285,
    "isActive": false
  },
  {
    "slug": "gryfice",
    "name": "Gryfice",
    "province": "zachodniopomorskie",
    "lat": 53.917172,
    "lng": 15.202772,
    "isActive": false
  },
  {
    "slug": "gryfino",
    "name": "Gryfino",
    "province": "zachodniopomorskie",
    "lat": 53.256045,
    "lng": 14.49734,
    "isActive": false
  },
  {
    "slug": "gryfow-slaski",
    "name": "Gryfów Śląski",
    "province": "dolnośląskie",
    "lat": 51.026287,
    "lng": 15.419522,
    "isActive": false
  },
  {
    "slug": "gubin",
    "name": "Gubin",
    "province": "lubuskie",
    "lat": 51.957309,
    "lng": 14.748739,
    "isActive": false
  },
  {
    "slug": "hajnowka",
    "name": "Hajnówka",
    "province": "podlaskie",
    "lat": 52.731988,
    "lng": 23.576308,
    "isActive": false
  },
  {
    "slug": "halinow",
    "name": "Halinów",
    "province": "mazowieckie",
    "lat": 52.225271,
    "lng": 21.356882,
    "isActive": false
  },
  {
    "slug": "hel",
    "name": "Hel",
    "province": "pomorskie",
    "lat": 54.623855,
    "lng": 18.744311,
    "isActive": false
  },
  {
    "slug": "hrubieszow",
    "name": "Hrubieszów",
    "province": "lubelskie",
    "lat": 50.806796,
    "lng": 23.890501,
    "isActive": false
  },
  {
    "slug": "ilawa",
    "name": "Iława",
    "province": "warmińsko-mazurskie",
    "lat": 53.596001,
    "lng": 19.559402,
    "isActive": false
  },
  {
    "slug": "ilowa",
    "name": "Iłowa",
    "province": "lubuskie",
    "lat": 51.502454,
    "lng": 15.204456,
    "isActive": false
  },
  {
    "slug": "ilza",
    "name": "Iłża",
    "province": "mazowieckie",
    "lat": 51.160061,
    "lng": 21.244168,
    "isActive": false
  },
  {
    "slug": "imielin",
    "name": "Imielin",
    "province": "śląskie",
    "lat": 50.143864,
    "lng": 19.199927,
    "isActive": false
  },
  {
    "slug": "inowlodz",
    "name": "Inowłódz",
    "province": "łódzkie",
    "lat": 51.520184,
    "lng": 20.22456,
    "isActive": false
  },
  {
    "slug": "inowroclaw",
    "name": "Inowrocław",
    "province": "kujawsko-pomorskie",
    "lat": 52.781666,
    "lng": 18.250236,
    "isActive": false
  },
  {
    "slug": "insko",
    "name": "Ińsko",
    "province": "zachodniopomorskie",
    "lat": 53.443409,
    "lng": 15.538962,
    "isActive": false
  },
  {
    "slug": "iwaniska",
    "name": "Iwaniska",
    "province": "świętokrzyskie",
    "lat": 50.725979,
    "lng": 21.276734,
    "isActive": false
  },
  {
    "slug": "iwonicz-zdroj",
    "name": "Iwonicz-Zdrój",
    "province": "podkarpackie",
    "lat": 49.56307,
    "lng": 21.785517,
    "isActive": false
  },
  {
    "slug": "izbica",
    "name": "Izbica",
    "province": "lubelskie",
    "lat": 50.892018,
    "lng": 23.156687,
    "isActive": false
  },
  {
    "slug": "izbica-kujawska",
    "name": "Izbica Kujawska",
    "province": "kujawsko-pomorskie",
    "lat": 52.419247,
    "lng": 18.760441,
    "isActive": false
  },
  {
    "slug": "jablonowo-pomorskie",
    "name": "Jabłonowo Pomorskie",
    "province": "kujawsko-pomorskie",
    "lat": 53.391873,
    "lng": 19.160318,
    "isActive": false
  },
  {
    "slug": "jadow",
    "name": "Jadów",
    "province": "mazowieckie",
    "lat": 52.474018,
    "lng": 21.628129,
    "isActive": false
  },
  {
    "slug": "janikowo",
    "name": "Janikowo",
    "province": "kujawsko-pomorskie",
    "lat": 52.756713,
    "lng": 18.111593,
    "isActive": false
  },
  {
    "slug": "janowiec-wielkopolski",
    "name": "Janowiec Wielkopolski",
    "province": "kujawsko-pomorskie",
    "lat": 52.758053,
    "lng": 17.488043,
    "isActive": false
  },
  {
    "slug": "janow-lubelski",
    "name": "Janów Lubelski",
    "province": "lubelskie",
    "lat": 50.700699,
    "lng": 22.413651,
    "isActive": false
  },
  {
    "slug": "jaraczewo",
    "name": "Jaraczewo",
    "province": "wielkopolskie",
    "lat": 51.972837,
    "lng": 17.295758,
    "isActive": false
  },
  {
    "slug": "jarocin",
    "name": "Jarocin",
    "province": "wielkopolskie",
    "lat": 51.958472,
    "lng": 17.507554,
    "isActive": false
  },
  {
    "slug": "jaroslaw",
    "name": "Jarosław",
    "province": "podkarpackie",
    "lat": 50.040009,
    "lng": 22.670535,
    "isActive": false
  },
  {
    "slug": "jasien",
    "name": "Jasień",
    "province": "lubuskie",
    "lat": 51.752297,
    "lng": 15.015442,
    "isActive": false
  },
  {
    "slug": "jaslo",
    "name": "Jasło",
    "province": "podkarpackie",
    "lat": 49.74701,
    "lng": 21.471723,
    "isActive": false
  },
  {
    "slug": "jastarnia",
    "name": "Jastarnia",
    "province": "pomorskie",
    "lat": 54.691944,
    "lng": 18.605553,
    "isActive": false
  },
  {
    "slug": "jastrowie",
    "name": "Jastrowie",
    "province": "wielkopolskie",
    "lat": 53.407518,
    "lng": 16.788806,
    "isActive": false
  },
  {
    "slug": "jastrzab",
    "name": "Jastrząb",
    "province": "mazowieckie",
    "lat": 51.244293,
    "lng": 20.957825,
    "isActive": false
  },
  {
    "slug": "jastrzebie-zdroj",
    "name": "Jastrzębie-Zdrój",
    "province": "śląskie",
    "lat": 49.960629,
    "lng": 18.600587,
    "isActive": false
  },
  {
    "slug": "jawor",
    "name": "Jawor",
    "province": "dolnośląskie",
    "lat": 51.067685,
    "lng": 16.185091,
    "isActive": false
  },
  {
    "slug": "jawornik-polski",
    "name": "Jawornik Polski",
    "province": "podkarpackie",
    "lat": 49.889938,
    "lng": 22.293156,
    "isActive": false
  },
  {
    "slug": "jaworzno",
    "name": "Jaworzno",
    "province": "śląskie",
    "lat": 50.189415,
    "lng": 19.301327,
    "isActive": false
  },
  {
    "slug": "jaworzyna-slaska",
    "name": "Jaworzyna Śląska",
    "province": "dolnośląskie",
    "lat": 50.912212,
    "lng": 16.435841,
    "isActive": false
  },
  {
    "slug": "jedlicze",
    "name": "Jedlicze",
    "province": "podkarpackie",
    "lat": 49.717012,
    "lng": 21.646834,
    "isActive": false
  },
  {
    "slug": "jedlina-zdroj",
    "name": "Jedlina-Zdrój",
    "province": "dolnośląskie",
    "lat": 50.724186,
    "lng": 16.339558,
    "isActive": false
  },
  {
    "slug": "jedlnia-letnisko",
    "name": "Jedlnia-Letnisko",
    "province": "mazowieckie",
    "lat": 51.434066,
    "lng": 21.333028,
    "isActive": false
  },
  {
    "slug": "jedwabne",
    "name": "Jedwabne",
    "province": "podlaskie",
    "lat": 53.287047,
    "lng": 22.303179,
    "isActive": false
  },
  {
    "slug": "jelcz-laskowice",
    "name": "Jelcz-Laskowice",
    "province": "dolnośląskie",
    "lat": 51.032777,
    "lng": 17.330008,
    "isActive": false
  },
  {
    "slug": "jelenia-gora",
    "name": "Jelenia Góra",
    "province": "dolnośląskie",
    "lat": 50.850165,
    "lng": 15.727517,
    "isActive": false
  },
  {
    "slug": "jeziorany",
    "name": "Jeziorany",
    "province": "warmińsko-mazurskie",
    "lat": 53.97474,
    "lng": 20.747043,
    "isActive": false
  },
  {
    "slug": "jezow",
    "name": "Jeżów",
    "province": "łódzkie",
    "lat": 51.820749,
    "lng": 19.975455,
    "isActive": false
  },
  {
    "slug": "jedrzejow",
    "name": "Jędrzejów",
    "province": "świętokrzyskie",
    "lat": 50.639541,
    "lng": 20.2894,
    "isActive": false
  },
  {
    "slug": "jordanow",
    "name": "Jordanów",
    "province": "małopolskie",
    "lat": 49.648881,
    "lng": 19.837081,
    "isActive": false
  },
  {
    "slug": "jozefow",
    "name": "Józefów",
    "province": "mazowieckie",
    "lat": 52.128574,
    "lng": 21.220061,
    "isActive": false
  },
  {
    "slug": "jozefow-lubelskie",
    "name": "Józefów",
    "province": "lubelskie",
    "lat": 50.478691,
    "lng": 23.053722,
    "isActive": false
  },
  {
    "slug": "jozefow-nad-wisla",
    "name": "Józefów nad Wisłą",
    "province": "lubelskie",
    "lat": 51.040853,
    "lng": 21.842875,
    "isActive": false
  },
  {
    "slug": "jutrosin",
    "name": "Jutrosin",
    "province": "wielkopolskie",
    "lat": 51.649881,
    "lng": 17.170596,
    "isActive": false
  },
  {
    "slug": "kaczory",
    "name": "Kaczory",
    "province": "wielkopolskie",
    "lat": 53.110675,
    "lng": 16.868257,
    "isActive": false
  },
  {
    "slug": "kalety",
    "name": "Kalety",
    "province": "śląskie",
    "lat": 50.568768,
    "lng": 18.92971,
    "isActive": false
  },
  {
    "slug": "kalisz",
    "name": "Kalisz",
    "province": "wielkopolskie",
    "lat": 51.747316,
    "lng": 18.076058,
    "isActive": false
  },
  {
    "slug": "kalisz-pomorski",
    "name": "Kalisz Pomorski",
    "province": "zachodniopomorskie",
    "lat": 53.292981,
    "lng": 15.903146,
    "isActive": false
  },
  {
    "slug": "kalwaria-zebrzydowska",
    "name": "Kalwaria Zebrzydowska",
    "province": "małopolskie",
    "lat": 49.86718,
    "lng": 19.666406,
    "isActive": false
  },
  {
    "slug": "kaluszyn",
    "name": "Kałuszyn",
    "province": "mazowieckie",
    "lat": 52.214353,
    "lng": 21.813706,
    "isActive": false
  },
  {
    "slug": "kamieniec-zabkowicki",
    "name": "Kamieniec Ząbkowicki",
    "province": "dolnośląskie",
    "lat": 50.522914,
    "lng": 16.873614,
    "isActive": false
  },
  {
    "slug": "kamienna-gora",
    "name": "Kamienna Góra",
    "province": "dolnośląskie",
    "lat": 50.784689,
    "lng": 16.033688,
    "isActive": false
  },
  {
    "slug": "kamien-krajenski",
    "name": "Kamień Krajeński",
    "province": "kujawsko-pomorskie",
    "lat": 53.532834,
    "lng": 17.527265,
    "isActive": false
  },
  {
    "slug": "kamien-pomorski",
    "name": "Kamień Pomorski",
    "province": "zachodniopomorskie",
    "lat": 53.96956,
    "lng": 14.782954,
    "isActive": false
  },
  {
    "slug": "kamiensk",
    "name": "Kamieńsk",
    "province": "łódzkie",
    "lat": 51.195216,
    "lng": 19.499488,
    "isActive": false
  },
  {
    "slug": "kamionka",
    "name": "Kamionka",
    "province": "lubelskie",
    "lat": 51.470953,
    "lng": 22.466907,
    "isActive": false
  },
  {
    "slug": "kanczuga",
    "name": "Kańczuga",
    "province": "podkarpackie",
    "lat": 49.977269,
    "lng": 22.395411,
    "isActive": false
  },
  {
    "slug": "karczew",
    "name": "Karczew",
    "province": "mazowieckie",
    "lat": 52.065732,
    "lng": 21.277654,
    "isActive": false
  },
  {
    "slug": "kargowa",
    "name": "Kargowa",
    "province": "lubuskie",
    "lat": 52.069122,
    "lng": 15.863094,
    "isActive": false
  },
  {
    "slug": "karlino",
    "name": "Karlino",
    "province": "zachodniopomorskie",
    "lat": 54.039985,
    "lng": 15.869032,
    "isActive": false
  },
  {
    "slug": "karpacz",
    "name": "Karpacz",
    "province": "dolnośląskie",
    "lat": 50.763867,
    "lng": 15.74444,
    "isActive": false
  },
  {
    "slug": "kartuzy",
    "name": "Kartuzy",
    "province": "pomorskie",
    "lat": 54.334619,
    "lng": 18.21097,
    "isActive": false
  },
  {
    "slug": "katowice",
    "name": "Katowice",
    "province": "śląskie",
    "lat": 50.213877,
    "lng": 19.007983,
    "isActive": false
  },
  {
    "slug": "kazanow",
    "name": "Kazanów",
    "province": "mazowieckie",
    "lat": 51.272895,
    "lng": 21.466028,
    "isActive": false
  },
  {
    "slug": "kazimierz-dolny",
    "name": "Kazimierz Dolny",
    "province": "lubelskie",
    "lat": 51.30692,
    "lng": 21.950078,
    "isActive": false
  },
  {
    "slug": "kazimierza-wielka",
    "name": "Kazimierza Wielka",
    "province": "świętokrzyskie",
    "lat": 50.269357,
    "lng": 20.486149,
    "isActive": false
  },
  {
    "slug": "katy-wroclawskie",
    "name": "Kąty Wrocławskie",
    "province": "dolnośląskie",
    "lat": 51.028353,
    "lng": 16.759278,
    "isActive": false
  },
  {
    "slug": "kcynia",
    "name": "Kcynia",
    "province": "kujawsko-pomorskie",
    "lat": 52.990937,
    "lng": 17.487141,
    "isActive": false
  },
  {
    "slug": "kedzierzyn-kozle",
    "name": "Kędzierzyn-Koźle",
    "province": "opolskie",
    "lat": 50.345441,
    "lng": 18.245532,
    "isActive": false
  },
  {
    "slug": "kepice",
    "name": "Kępice",
    "province": "pomorskie",
    "lat": 54.235314,
    "lng": 16.886124,
    "isActive": false
  },
  {
    "slug": "kepno",
    "name": "Kępno",
    "province": "wielkopolskie",
    "lat": 51.285467,
    "lng": 17.986835,
    "isActive": false
  },
  {
    "slug": "ketrzyn",
    "name": "Kętrzyn",
    "province": "warmińsko-mazurskie",
    "lat": 54.082321,
    "lng": 21.375075,
    "isActive": false
  },
  {
    "slug": "kety",
    "name": "Kęty",
    "province": "małopolskie",
    "lat": 49.879535,
    "lng": 19.210053,
    "isActive": false
  },
  {
    "slug": "kielce",
    "name": "Kielce",
    "province": "świętokrzyskie",
    "lat": 50.854186,
    "lng": 20.615575,
    "isActive": false
  },
  {
    "slug": "kiernozia",
    "name": "Kiernozia",
    "province": "łódzkie",
    "lat": 52.271242,
    "lng": 19.871229,
    "isActive": false
  },
  {
    "slug": "kietrz",
    "name": "Kietrz",
    "province": "opolskie",
    "lat": 50.080898,
    "lng": 18.012701,
    "isActive": false
  },
  {
    "slug": "kikol",
    "name": "Kikół",
    "province": "kujawsko-pomorskie",
    "lat": 52.911411,
    "lng": 19.12171,
    "isActive": false
  },
  {
    "slug": "kisielice",
    "name": "Kisielice",
    "province": "warmińsko-mazurskie",
    "lat": 53.606048,
    "lng": 19.260374,
    "isActive": false
  },
  {
    "slug": "kleczew",
    "name": "Kleczew",
    "province": "wielkopolskie",
    "lat": 52.366731,
    "lng": 18.177326,
    "isActive": false
  },
  {
    "slug": "kleszczele",
    "name": "Kleszczele",
    "province": "podlaskie",
    "lat": 52.577613,
    "lng": 23.33046,
    "isActive": false
  },
  {
    "slug": "klimontow",
    "name": "Klimontów",
    "province": "świętokrzyskie",
    "lat": 50.653637,
    "lng": 21.453067,
    "isActive": false
  },
  {
    "slug": "kluczbork",
    "name": "Kluczbork",
    "province": "opolskie",
    "lat": 50.974564,
    "lng": 18.220485,
    "isActive": false
  },
  {
    "slug": "klecko",
    "name": "Kłecko",
    "province": "wielkopolskie",
    "lat": 52.626811,
    "lng": 17.442092,
    "isActive": false
  },
  {
    "slug": "klobuck",
    "name": "Kłobuck",
    "province": "śląskie",
    "lat": 50.906887,
    "lng": 18.940266,
    "isActive": false
  },
  {
    "slug": "klodawa",
    "name": "Kłodawa",
    "province": "wielkopolskie",
    "lat": 52.248744,
    "lng": 18.91515,
    "isActive": false
  },
  {
    "slug": "klodzko",
    "name": "Kłodzko",
    "province": "dolnośląskie",
    "lat": 50.433746,
    "lng": 16.649035,
    "isActive": false
  },
  {
    "slug": "knurow",
    "name": "Knurów",
    "province": "śląskie",
    "lat": 50.207225,
    "lng": 18.662957,
    "isActive": false
  },
  {
    "slug": "knyszyn",
    "name": "Knyszyn",
    "province": "podlaskie",
    "lat": 53.319587,
    "lng": 22.897502,
    "isActive": false
  },
  {
    "slug": "kobylin",
    "name": "Kobylin",
    "province": "wielkopolskie",
    "lat": 51.71708,
    "lng": 17.239129,
    "isActive": false
  },
  {
    "slug": "kobylnica",
    "name": "Kobylnica",
    "province": "pomorskie",
    "lat": 54.435753,
    "lng": 16.995668,
    "isActive": false
  },
  {
    "slug": "kobylka",
    "name": "Kobyłka",
    "province": "mazowieckie",
    "lat": 52.340023,
    "lng": 21.198776,
    "isActive": false
  },
  {
    "slug": "kock",
    "name": "Kock",
    "province": "lubelskie",
    "lat": 51.651924,
    "lng": 22.427822,
    "isActive": false
  },
  {
    "slug": "kolbuszowa",
    "name": "Kolbuszowa",
    "province": "podkarpackie",
    "lat": 50.236018,
    "lng": 21.766611,
    "isActive": false
  },
  {
    "slug": "kolno",
    "name": "Kolno",
    "province": "podlaskie",
    "lat": 53.401834,
    "lng": 21.936138,
    "isActive": false
  },
  {
    "slug": "kolonowskie",
    "name": "Kolonowskie",
    "province": "opolskie",
    "lat": 50.661449,
    "lng": 18.392522,
    "isActive": false
  },
  {
    "slug": "koluszki",
    "name": "Koluszki",
    "province": "łódzkie",
    "lat": 51.745766,
    "lng": 19.816799,
    "isActive": false
  },
  {
    "slug": "kolaczyce",
    "name": "Kołaczyce",
    "province": "podkarpackie",
    "lat": 49.810656,
    "lng": 21.434203,
    "isActive": false
  },
  {
    "slug": "kolo",
    "name": "Koło",
    "province": "wielkopolskie",
    "lat": 52.198384,
    "lng": 18.635746,
    "isActive": false
  },
  {
    "slug": "kolobrzeg",
    "name": "Kołobrzeg",
    "province": "zachodniopomorskie",
    "lat": 54.175776,
    "lng": 15.596982,
    "isActive": false
  },
  {
    "slug": "koniecpol",
    "name": "Koniecpol",
    "province": "śląskie",
    "lat": 50.771122,
    "lng": 19.692439,
    "isActive": false
  },
  {
    "slug": "konin",
    "name": "Konin",
    "province": "wielkopolskie",
    "lat": 52.256117,
    "lng": 18.262651,
    "isActive": false
  },
  {
    "slug": "konstancin-jeziorna",
    "name": "Konstancin-Jeziorna",
    "province": "mazowieckie",
    "lat": 52.083873,
    "lng": 21.105609,
    "isActive": false
  },
  {
    "slug": "konstantynow-lodzki",
    "name": "Konstantynów Łódzki",
    "province": "łódzkie",
    "lat": 51.757178,
    "lng": 19.310148,
    "isActive": false
  },
  {
    "slug": "konskie",
    "name": "Końskie",
    "province": "świętokrzyskie",
    "lat": 51.184476,
    "lng": 20.40553,
    "isActive": false
  },
  {
    "slug": "konskowola",
    "name": "Końskowola",
    "province": "lubelskie",
    "lat": 51.410813,
    "lng": 22.061417,
    "isActive": false
  },
  {
    "slug": "koprzywnica",
    "name": "Koprzywnica",
    "province": "świętokrzyskie",
    "lat": 50.594848,
    "lng": 21.576094,
    "isActive": false
  },
  {
    "slug": "korfantow",
    "name": "Korfantów",
    "province": "opolskie",
    "lat": 50.484758,
    "lng": 17.598506,
    "isActive": false
  },
  {
    "slug": "koronowo",
    "name": "Koronowo",
    "province": "kujawsko-pomorskie",
    "lat": 53.321996,
    "lng": 17.947898,
    "isActive": false
  },
  {
    "slug": "korsze",
    "name": "Korsze",
    "province": "warmińsko-mazurskie",
    "lat": 54.171866,
    "lng": 21.142285,
    "isActive": false
  },
  {
    "slug": "kosow-lacki",
    "name": "Kosów Lacki",
    "province": "mazowieckie",
    "lat": 52.595133,
    "lng": 22.153541,
    "isActive": false
  },
  {
    "slug": "kostrzyn",
    "name": "Kostrzyn",
    "province": "wielkopolskie",
    "lat": 52.397933,
    "lng": 17.223208,
    "isActive": false
  },
  {
    "slug": "kostrzyn-nad-odra",
    "name": "Kostrzyn nad Odrą",
    "province": "lubuskie",
    "lat": 52.616278,
    "lng": 14.640237,
    "isActive": false
  },
  {
    "slug": "koszalin",
    "name": "Koszalin",
    "province": "zachodniopomorskie",
    "lat": 54.207179,
    "lng": 16.201919,
    "isActive": false
  },
  {
    "slug": "koszyce",
    "name": "Koszyce",
    "province": "małopolskie",
    "lat": 50.17466,
    "lng": 20.580442,
    "isActive": false
  },
  {
    "slug": "koscian",
    "name": "Kościan",
    "province": "wielkopolskie",
    "lat": 52.08346,
    "lng": 16.649453,
    "isActive": false
  },
  {
    "slug": "koscierzyna",
    "name": "Kościerzyna",
    "province": "pomorskie",
    "lat": 54.120781,
    "lng": 17.984633,
    "isActive": false
  },
  {
    "slug": "kowal",
    "name": "Kowal",
    "province": "kujawsko-pomorskie",
    "lat": 52.532383,
    "lng": 19.145075,
    "isActive": false
  },
  {
    "slug": "kowalewo-pomorskie",
    "name": "Kowalewo Pomorskie",
    "province": "kujawsko-pomorskie",
    "lat": 53.157255,
    "lng": 18.887338,
    "isActive": false
  },
  {
    "slug": "kowary",
    "name": "Kowary",
    "province": "dolnośląskie",
    "lat": 50.778723,
    "lng": 15.842766,
    "isActive": false
  },
  {
    "slug": "kozieglowy",
    "name": "Koziegłowy",
    "province": "śląskie",
    "lat": 50.615851,
    "lng": 19.16756,
    "isActive": false
  },
  {
    "slug": "kozienice",
    "name": "Kozienice",
    "province": "mazowieckie",
    "lat": 51.586042,
    "lng": 21.53641,
    "isActive": false
  },
  {
    "slug": "kozmin-wielkopolski",
    "name": "Koźmin Wielkopolski",
    "province": "wielkopolskie",
    "lat": 51.829053,
    "lng": 17.45299,
    "isActive": false
  },
  {
    "slug": "kozminek",
    "name": "Koźminek",
    "province": "wielkopolskie",
    "lat": 51.793222,
    "lng": 18.338182,
    "isActive": false
  },
  {
    "slug": "kozuchow",
    "name": "Kożuchów",
    "province": "lubuskie",
    "lat": 51.746792,
    "lng": 15.597404,
    "isActive": false
  },
  {
    "slug": "kornik",
    "name": "Kórnik",
    "province": "wielkopolskie",
    "lat": 52.240317,
    "lng": 17.09179,
    "isActive": false
  },
  {
    "slug": "krajenka",
    "name": "Krajenka",
    "province": "wielkopolskie",
    "lat": 53.292748,
    "lng": 16.983735,
    "isActive": false
  },
  {
    "slug": "krakow",
    "name": "Kraków",
    "province": "małopolskie",
    "lat": 50.0469,
    "lng": 20.00479,
    "isActive": false
  },
  {
    "slug": "krapkowice",
    "name": "Krapkowice",
    "province": "opolskie",
    "lat": 50.478605,
    "lng": 17.957385,
    "isActive": false
  },
  {
    "slug": "krasnobrod",
    "name": "Krasnobród",
    "province": "lubelskie",
    "lat": 50.540363,
    "lng": 23.212017,
    "isActive": false
  },
  {
    "slug": "krasnystaw",
    "name": "Krasnystaw",
    "province": "lubelskie",
    "lat": 50.991889,
    "lng": 23.16979,
    "isActive": false
  },
  {
    "slug": "krasnik",
    "name": "Kraśnik",
    "province": "lubelskie",
    "lat": 50.943449,
    "lng": 22.213482,
    "isActive": false
  },
  {
    "slug": "krobia",
    "name": "Krobia",
    "province": "wielkopolskie",
    "lat": 51.772108,
    "lng": 16.990441,
    "isActive": false
  },
  {
    "slug": "krosno",
    "name": "Krosno",
    "province": "podkarpackie",
    "lat": 49.689269,
    "lng": 21.76132,
    "isActive": false
  },
  {
    "slug": "krosno-odrzanskie",
    "name": "Krosno Odrzańskie",
    "province": "lubuskie",
    "lat": 52.041076,
    "lng": 15.101489,
    "isActive": false
  },
  {
    "slug": "krosniewice",
    "name": "Krośniewice",
    "province": "łódzkie",
    "lat": 52.255402,
    "lng": 19.17055,
    "isActive": false
  },
  {
    "slug": "krotoszyn",
    "name": "Krotoszyn",
    "province": "wielkopolskie",
    "lat": 51.695115,
    "lng": 17.443903,
    "isActive": false
  },
  {
    "slug": "kruszwica",
    "name": "Kruszwica",
    "province": "kujawsko-pomorskie",
    "lat": 52.670725,
    "lng": 18.334585,
    "isActive": false
  },
  {
    "slug": "krynica-morska",
    "name": "Krynica Morska",
    "province": "pomorskie",
    "lat": 54.389637,
    "lng": 19.490052,
    "isActive": false
  },
  {
    "slug": "krynica-zdroj",
    "name": "Krynica-Zdrój",
    "province": "małopolskie",
    "lat": 49.415805,
    "lng": 20.934244,
    "isActive": false
  },
  {
    "slug": "krynki",
    "name": "Krynki",
    "province": "podlaskie",
    "lat": 53.263935,
    "lng": 23.763372,
    "isActive": false
  },
  {
    "slug": "krzanowice",
    "name": "Krzanowice",
    "province": "śląskie",
    "lat": 50.014817,
    "lng": 18.126455,
    "isActive": false
  },
  {
    "slug": "krzepice",
    "name": "Krzepice",
    "province": "śląskie",
    "lat": 50.960894,
    "lng": 18.725729,
    "isActive": false
  },
  {
    "slug": "krzeszowice",
    "name": "Krzeszowice",
    "province": "małopolskie",
    "lat": 50.144008,
    "lng": 19.630928,
    "isActive": false
  },
  {
    "slug": "krzywin",
    "name": "Krzywiń",
    "province": "wielkopolskie",
    "lat": 51.963364,
    "lng": 16.824495,
    "isActive": false
  },
  {
    "slug": "krzyz-wielkopolski",
    "name": "Krzyż Wielkopolski",
    "province": "wielkopolskie",
    "lat": 52.880693,
    "lng": 16.010519,
    "isActive": false
  },
  {
    "slug": "ksiaz-wielki",
    "name": "Książ Wielki",
    "province": "małopolskie",
    "lat": 50.443763,
    "lng": 20.139963,
    "isActive": false
  },
  {
    "slug": "ksiaz-wielkopolski",
    "name": "Książ Wielkopolski",
    "province": "wielkopolskie",
    "lat": 52.059034,
    "lng": 17.248657,
    "isActive": false
  },
  {
    "slug": "kudowa-zdroj",
    "name": "Kudowa-Zdrój",
    "province": "dolnośląskie",
    "lat": 50.445798,
    "lng": 16.268897,
    "isActive": false
  },
  {
    "slug": "kunow",
    "name": "Kunów",
    "province": "świętokrzyskie",
    "lat": 50.958477,
    "lng": 21.282422,
    "isActive": false
  },
  {
    "slug": "kurow",
    "name": "Kurów",
    "province": "lubelskie",
    "lat": 51.390775,
    "lng": 22.169068,
    "isActive": false
  },
  {
    "slug": "kutno",
    "name": "Kutno",
    "province": "łódzkie",
    "lat": 52.222282,
    "lng": 19.371138,
    "isActive": false
  },
  {
    "slug": "kuznia-raciborska",
    "name": "Kuźnia Raciborska",
    "province": "śląskie",
    "lat": 50.213451,
    "lng": 18.326627,
    "isActive": false
  },
  {
    "slug": "kwidzyn",
    "name": "Kwidzyn",
    "province": "pomorskie",
    "lat": 53.720466,
    "lng": 18.945284,
    "isActive": false
  },
  {
    "slug": "latowicz",
    "name": "Latowicz",
    "province": "mazowieckie",
    "lat": 52.024052,
    "lng": 21.809004,
    "isActive": false
  },
  {
    "slug": "ladek-zdroj",
    "name": "Lądek-Zdrój",
    "province": "dolnośląskie",
    "lat": 50.348213,
    "lng": 16.88332,
    "isActive": false
  },
  {
    "slug": "legionowo",
    "name": "Legionowo",
    "province": "mazowieckie",
    "lat": 52.404894,
    "lng": 20.939314,
    "isActive": false
  },
  {
    "slug": "legnica",
    "name": "Legnica",
    "province": "dolnośląskie",
    "lat": 51.204688,
    "lng": 16.158232,
    "isActive": false
  },
  {
    "slug": "lesko",
    "name": "Lesko",
    "province": "podkarpackie",
    "lat": 49.468499,
    "lng": 22.325669,
    "isActive": false
  },
  {
    "slug": "leszno",
    "name": "Leszno",
    "province": "wielkopolskie",
    "lat": 51.843962,
    "lng": 16.574029,
    "isActive": false
  },
  {
    "slug": "lesna",
    "name": "Leśna",
    "province": "dolnośląskie",
    "lat": 51.027503,
    "lng": 15.277193,
    "isActive": false
  },
  {
    "slug": "lesnica",
    "name": "Leśnica",
    "province": "opolskie",
    "lat": 50.429234,
    "lng": 18.181571,
    "isActive": false
  },
  {
    "slug": "lewin-brzeski",
    "name": "Lewin Brzeski",
    "province": "opolskie",
    "lat": 50.754558,
    "lng": 17.630319,
    "isActive": false
  },
  {
    "slug": "lezajsk",
    "name": "Leżajsk",
    "province": "podkarpackie",
    "lat": 50.265524,
    "lng": 22.418622,
    "isActive": false
  },
  {
    "slug": "lebork",
    "name": "Lębork",
    "province": "pomorskie",
    "lat": 54.535593,
    "lng": 17.757786,
    "isActive": false
  },
  {
    "slug": "ledziny",
    "name": "Lędziny",
    "province": "śląskie",
    "lat": 50.128468,
    "lng": 19.123538,
    "isActive": false
  },
  {
    "slug": "libiaz",
    "name": "Libiąż",
    "province": "małopolskie",
    "lat": 50.094903,
    "lng": 19.318334,
    "isActive": false
  },
  {
    "slug": "lidzbark",
    "name": "Lidzbark",
    "province": "warmińsko-mazurskie",
    "lat": 53.259999,
    "lng": 19.82381,
    "isActive": false
  },
  {
    "slug": "lidzbark-warminski",
    "name": "Lidzbark Warmiński",
    "province": "warmińsko-mazurskie",
    "lat": 54.130731,
    "lng": 20.567466,
    "isActive": false
  },
  {
    "slug": "limanowa",
    "name": "Limanowa",
    "province": "małopolskie",
    "lat": 49.714993,
    "lng": 20.410296,
    "isActive": false
  },
  {
    "slug": "lipiany",
    "name": "Lipiany",
    "province": "zachodniopomorskie",
    "lat": 53.007926,
    "lng": 14.957066,
    "isActive": false
  },
  {
    "slug": "lipno",
    "name": "Lipno",
    "province": "kujawsko-pomorskie",
    "lat": 52.842485,
    "lng": 19.175493,
    "isActive": false
  },
  {
    "slug": "lipsk",
    "name": "Lipsk",
    "province": "podlaskie",
    "lat": 53.737613,
    "lng": 23.401484,
    "isActive": false
  },
  {
    "slug": "lipsko",
    "name": "Lipsko",
    "province": "mazowieckie",
    "lat": 51.163053,
    "lng": 21.648508,
    "isActive": false
  },
  {
    "slug": "lubaczow",
    "name": "Lubaczów",
    "province": "podkarpackie",
    "lat": 50.157191,
    "lng": 23.120249,
    "isActive": false
  },
  {
    "slug": "luban",
    "name": "Lubań",
    "province": "dolnośląskie",
    "lat": 51.114691,
    "lng": 15.280862,
    "isActive": false
  },
  {
    "slug": "lubartow",
    "name": "Lubartów",
    "province": "lubelskie",
    "lat": 51.458407,
    "lng": 22.605893,
    "isActive": false
  },
  {
    "slug": "lubawa",
    "name": "Lubawa",
    "province": "warmińsko-mazurskie",
    "lat": 53.500508,
    "lng": 19.754878,
    "isActive": false
  },
  {
    "slug": "lubawka",
    "name": "Lubawka",
    "province": "dolnośląskie",
    "lat": 50.698597,
    "lng": 16.006421,
    "isActive": false
  },
  {
    "slug": "lubien-kujawski",
    "name": "Lubień Kujawski",
    "province": "kujawsko-pomorskie",
    "lat": 52.40187,
    "lng": 19.167962,
    "isActive": false
  },
  {
    "slug": "lubin",
    "name": "Lubin",
    "province": "dolnośląskie",
    "lat": 51.399417,
    "lng": 16.193942,
    "isActive": false
  },
  {
    "slug": "lublin",
    "name": "Lublin",
    "province": "lubelskie",
    "lat": 51.218183,
    "lng": 22.563665,
    "isActive": false
  },
  {
    "slug": "lubliniec",
    "name": "Lubliniec",
    "province": "śląskie",
    "lat": 50.643248,
    "lng": 18.708685,
    "isActive": false
  },
  {
    "slug": "lubniewice",
    "name": "Lubniewice",
    "province": "lubuskie",
    "lat": 52.51012,
    "lng": 15.238637,
    "isActive": false
  },
  {
    "slug": "lubomierz",
    "name": "Lubomierz",
    "province": "dolnośląskie",
    "lat": 51.004584,
    "lng": 15.511061,
    "isActive": false
  },
  {
    "slug": "lubon",
    "name": "Luboń",
    "province": "wielkopolskie",
    "lat": 52.336724,
    "lng": 16.872891,
    "isActive": false
  },
  {
    "slug": "lubowidz",
    "name": "Lubowidz",
    "province": "mazowieckie",
    "lat": 53.116478,
    "lng": 19.855961,
    "isActive": false
  },
  {
    "slug": "lubraniec",
    "name": "Lubraniec",
    "province": "kujawsko-pomorskie",
    "lat": 52.537931,
    "lng": 18.830141,
    "isActive": false
  },
  {
    "slug": "lubsko",
    "name": "Lubsko",
    "province": "lubuskie",
    "lat": 51.779079,
    "lng": 14.955479,
    "isActive": false
  },
  {
    "slug": "lubycza-krolewska",
    "name": "Lubycza Królewska",
    "province": "lubelskie",
    "lat": 50.338788,
    "lng": 23.518628,
    "isActive": false
  },
  {
    "slug": "lutomiersk",
    "name": "Lutomiersk",
    "province": "łódzkie",
    "lat": 51.755763,
    "lng": 19.202143,
    "isActive": false
  },
  {
    "slug": "lututow",
    "name": "Lututów",
    "province": "łódzkie",
    "lat": 51.376743,
    "lng": 18.436049,
    "isActive": false
  },
  {
    "slug": "lwowek",
    "name": "Lwówek",
    "province": "wielkopolskie",
    "lat": 52.446813,
    "lng": 16.181793,
    "isActive": false
  },
  {
    "slug": "lwowek-slaski",
    "name": "Lwówek Śląski",
    "province": "dolnośląskie",
    "lat": 51.110852,
    "lng": 15.605829,
    "isActive": false
  },
  {
    "slug": "labiszyn",
    "name": "Łabiszyn",
    "province": "kujawsko-pomorskie",
    "lat": 52.952006,
    "lng": 17.915342,
    "isActive": false
  },
  {
    "slug": "lagow",
    "name": "Łagów",
    "province": "świętokrzyskie",
    "lat": 50.777607,
    "lng": 21.083428,
    "isActive": false
  },
  {
    "slug": "lancut",
    "name": "Łańcut",
    "province": "podkarpackie",
    "lat": 50.069565,
    "lng": 22.224528,
    "isActive": false
  },
  {
    "slug": "lapy",
    "name": "Łapy",
    "province": "podlaskie",
    "lat": 52.993786,
    "lng": 22.877182,
    "isActive": false
  },
  {
    "slug": "lasin",
    "name": "Łasin",
    "province": "kujawsko-pomorskie",
    "lat": 53.517927,
    "lng": 19.098685,
    "isActive": false
  },
  {
    "slug": "lask",
    "name": "Łask",
    "province": "łódzkie",
    "lat": 51.601807,
    "lng": 19.158291,
    "isActive": false
  },
  {
    "slug": "laskarzew",
    "name": "Łaskarzew",
    "province": "mazowieckie",
    "lat": 51.785514,
    "lng": 21.608307,
    "isActive": false
  },
  {
    "slug": "laszczow",
    "name": "Łaszczów",
    "province": "lubelskie",
    "lat": 50.529824,
    "lng": 23.718871,
    "isActive": false
  },
  {
    "slug": "laziska-gorne",
    "name": "Łaziska Górne",
    "province": "śląskie",
    "lat": 50.143491,
    "lng": 18.852699,
    "isActive": false
  },
  {
    "slug": "lazy",
    "name": "Łazy",
    "province": "śląskie",
    "lat": 50.425247,
    "lng": 19.391999,
    "isActive": false
  },
  {
    "slug": "leba",
    "name": "Łeba",
    "province": "pomorskie",
    "lat": 54.760338,
    "lng": 17.581854,
    "isActive": false
  },
  {
    "slug": "leczna",
    "name": "Łęczna",
    "province": "lubelskie",
    "lat": 51.302593,
    "lng": 22.885179,
    "isActive": false
  },
  {
    "slug": "leczyca",
    "name": "Łęczyca",
    "province": "łódzkie",
    "lat": 52.054392,
    "lng": 19.19911,
    "isActive": false
  },
  {
    "slug": "leknica",
    "name": "Łęknica",
    "province": "lubuskie",
    "lat": 51.5473,
    "lng": 14.756294,
    "isActive": false
  },
  {
    "slug": "lobez",
    "name": "Łobez",
    "province": "zachodniopomorskie",
    "lat": 53.635996,
    "lng": 15.615795,
    "isActive": false
  },
  {
    "slug": "lobzenica",
    "name": "Łobżenica",
    "province": "wielkopolskie",
    "lat": 53.266527,
    "lng": 17.253093,
    "isActive": false
  },
  {
    "slug": "lochow",
    "name": "Łochów",
    "province": "mazowieckie",
    "lat": 52.524885,
    "lng": 21.716641,
    "isActive": false
  },
  {
    "slug": "lomianki",
    "name": "Łomianki",
    "province": "mazowieckie",
    "lat": 52.333277,
    "lng": 20.893915,
    "isActive": false
  },
  {
    "slug": "lomza",
    "name": "Łomża",
    "province": "podlaskie",
    "lat": 53.182572,
    "lng": 22.058877,
    "isActive": false
  },
  {
    "slug": "lopuszno",
    "name": "Łopuszno",
    "province": "świętokrzyskie",
    "lat": 50.945938,
    "lng": 20.251362,
    "isActive": false
  },
  {
    "slug": "losice",
    "name": "Łosice",
    "province": "mazowieckie",
    "lat": 52.195961,
    "lng": 22.71989,
    "isActive": false
  },
  {
    "slug": "lowicz",
    "name": "Łowicz",
    "province": "łódzkie",
    "lat": 52.101134,
    "lng": 19.94471,
    "isActive": false
  },
  {
    "slug": "lodz",
    "name": "Łódź",
    "province": "łódzkie",
    "lat": 51.772985,
    "lng": 19.480405,
    "isActive": false
  },
  {
    "slug": "lukow",
    "name": "Łuków",
    "province": "lubelskie",
    "lat": 51.925294,
    "lng": 22.385492,
    "isActive": false
  },
  {
    "slug": "maciejowice",
    "name": "Maciejowice",
    "province": "mazowieckie",
    "lat": 51.700235,
    "lng": 21.560654,
    "isActive": false
  },
  {
    "slug": "magnuszew",
    "name": "Magnuszew",
    "province": "mazowieckie",
    "lat": 51.754485,
    "lng": 21.385284,
    "isActive": false
  },
  {
    "slug": "makow-mazowiecki",
    "name": "Maków Mazowiecki",
    "province": "mazowieckie",
    "lat": 52.861701,
    "lng": 21.093103,
    "isActive": false
  },
  {
    "slug": "makow-podhalanski",
    "name": "Maków Podhalański",
    "province": "małopolskie",
    "lat": 49.739802,
    "lng": 19.661252,
    "isActive": false
  },
  {
    "slug": "malbork",
    "name": "Malbork",
    "province": "pomorskie",
    "lat": 54.028507,
    "lng": 19.044351,
    "isActive": false
  },
  {
    "slug": "malogoszcz",
    "name": "Małogoszcz",
    "province": "świętokrzyskie",
    "lat": 50.813497,
    "lng": 20.264764,
    "isActive": false
  },
  {
    "slug": "malomice",
    "name": "Małomice",
    "province": "lubuskie",
    "lat": 51.556891,
    "lng": 15.45617,
    "isActive": false
  },
  {
    "slug": "margonin",
    "name": "Margonin",
    "province": "wielkopolskie",
    "lat": 52.970529,
    "lng": 17.099873,
    "isActive": false
  },
  {
    "slug": "marki",
    "name": "Marki",
    "province": "mazowieckie",
    "lat": 52.337004,
    "lng": 21.119964,
    "isActive": false
  },
  {
    "slug": "maszewo",
    "name": "Maszewo",
    "province": "zachodniopomorskie",
    "lat": 53.494731,
    "lng": 15.061664,
    "isActive": false
  },
  {
    "slug": "miasteczko-krajenskie",
    "name": "Miasteczko Krajeńskie",
    "province": "wielkopolskie",
    "lat": 53.098994,
    "lng": 17.006252,
    "isActive": false
  },
  {
    "slug": "miasteczko-slaskie",
    "name": "Miasteczko Śląskie",
    "province": "śląskie",
    "lat": 50.494511,
    "lng": 18.94638,
    "isActive": false
  },
  {
    "slug": "miastko",
    "name": "Miastko",
    "province": "pomorskie",
    "lat": 54.004277,
    "lng": 16.971303,
    "isActive": false
  },
  {
    "slug": "michalowo",
    "name": "Michałowo",
    "province": "podlaskie",
    "lat": 53.033146,
    "lng": 23.61031,
    "isActive": false
  },
  {
    "slug": "miechow",
    "name": "Miechów",
    "province": "małopolskie",
    "lat": 50.358764,
    "lng": 20.027499,
    "isActive": false
  },
  {
    "slug": "miejska-gorka",
    "name": "Miejska Górka",
    "province": "wielkopolskie",
    "lat": 51.653505,
    "lng": 16.956031,
    "isActive": false
  },
  {
    "slug": "mielec",
    "name": "Mielec",
    "province": "podkarpackie",
    "lat": 50.280397,
    "lng": 21.483686,
    "isActive": false
  },
  {
    "slug": "mielno",
    "name": "Mielno",
    "province": "zachodniopomorskie",
    "lat": 54.27024,
    "lng": 16.119883,
    "isActive": false
  },
  {
    "slug": "mieroszow",
    "name": "Mieroszów",
    "province": "dolnośląskie",
    "lat": 50.670183,
    "lng": 16.187789,
    "isActive": false
  },
  {
    "slug": "mieszkowice",
    "name": "Mieszkowice",
    "province": "zachodniopomorskie",
    "lat": 52.785909,
    "lng": 14.490676,
    "isActive": false
  },
  {
    "slug": "miescisko",
    "name": "Mieścisko",
    "province": "wielkopolskie",
    "lat": 52.740324,
    "lng": 17.33006,
    "isActive": false
  },
  {
    "slug": "miedzyborz",
    "name": "Międzybórz",
    "province": "dolnośląskie",
    "lat": 51.401721,
    "lng": 17.672417,
    "isActive": false
  },
  {
    "slug": "miedzychod",
    "name": "Międzychód",
    "province": "wielkopolskie",
    "lat": 52.6008,
    "lng": 15.887387,
    "isActive": false
  },
  {
    "slug": "miedzylesie",
    "name": "Międzylesie",
    "province": "dolnośląskie",
    "lat": 50.144306,
    "lng": 16.646721,
    "isActive": false
  },
  {
    "slug": "miedzyrzec-podlaski",
    "name": "Międzyrzec Podlaski",
    "province": "lubelskie",
    "lat": 51.981009,
    "lng": 22.776972,
    "isActive": false
  },
  {
    "slug": "miedzyrzecz",
    "name": "Międzyrzecz",
    "province": "lubuskie",
    "lat": 52.446132,
    "lng": 15.579628,
    "isActive": false
  },
  {
    "slug": "miedzyzdroje",
    "name": "Międzyzdroje",
    "province": "zachodniopomorskie",
    "lat": 53.926201,
    "lng": 14.436096,
    "isActive": false
  },
  {
    "slug": "miekinia",
    "name": "Miękinia",
    "province": "dolnośląskie",
    "lat": 51.197453,
    "lng": 16.734143,
    "isActive": false
  },
  {
    "slug": "mikolajki",
    "name": "Mikołajki",
    "province": "warmińsko-mazurskie",
    "lat": 53.801961,
    "lng": 21.58098,
    "isActive": false
  },
  {
    "slug": "mikolow",
    "name": "Mikołów",
    "province": "śląskie",
    "lat": 50.196067,
    "lng": 18.861887,
    "isActive": false
  },
  {
    "slug": "mikstat",
    "name": "Mikstat",
    "province": "wielkopolskie",
    "lat": 51.535286,
    "lng": 17.976069,
    "isActive": false
  },
  {
    "slug": "milanowek",
    "name": "Milanówek",
    "province": "mazowieckie",
    "lat": 52.124752,
    "lng": 20.670342,
    "isActive": false
  },
  {
    "slug": "milicz",
    "name": "Milicz",
    "province": "dolnośląskie",
    "lat": 51.521576,
    "lng": 17.269943,
    "isActive": false
  },
  {
    "slug": "milakowo",
    "name": "Miłakowo",
    "province": "warmińsko-mazurskie",
    "lat": 54.003974,
    "lng": 20.072893,
    "isActive": false
  },
  {
    "slug": "milomlyn",
    "name": "Miłomłyn",
    "province": "warmińsko-mazurskie",
    "lat": 53.771075,
    "lng": 19.844298,
    "isActive": false
  },
  {
    "slug": "miloslaw",
    "name": "Miłosław",
    "province": "wielkopolskie",
    "lat": 52.208352,
    "lng": 17.486114,
    "isActive": false
  },
  {
    "slug": "minsk-mazowiecki",
    "name": "Mińsk Mazowiecki",
    "province": "mazowieckie",
    "lat": 52.178966,
    "lng": 21.556624,
    "isActive": false
  },
  {
    "slug": "miroslawiec",
    "name": "Mirosławiec",
    "province": "zachodniopomorskie",
    "lat": 53.342875,
    "lng": 16.086118,
    "isActive": false
  },
  {
    "slug": "mirsk",
    "name": "Mirsk",
    "province": "dolnośląskie",
    "lat": 50.96646,
    "lng": 15.38372,
    "isActive": false
  },
  {
    "slug": "mlawa",
    "name": "Mława",
    "province": "mazowieckie",
    "lat": 53.134251,
    "lng": 20.381682,
    "isActive": false
  },
  {
    "slug": "mlynary",
    "name": "Młynary",
    "province": "warmińsko-mazurskie",
    "lat": 54.188578,
    "lng": 19.726463,
    "isActive": false
  },
  {
    "slug": "modliborzyce",
    "name": "Modliborzyce",
    "province": "lubelskie",
    "lat": 50.750072,
    "lng": 22.337688,
    "isActive": false
  },
  {
    "slug": "mogielnica",
    "name": "Mogielnica",
    "province": "mazowieckie",
    "lat": 51.692152,
    "lng": 20.703167,
    "isActive": false
  },
  {
    "slug": "mogilno",
    "name": "Mogilno",
    "province": "kujawsko-pomorskie",
    "lat": 52.658863,
    "lng": 17.954184,
    "isActive": false
  },
  {
    "slug": "monki",
    "name": "Mońki",
    "province": "podlaskie",
    "lat": 53.404245,
    "lng": 22.804923,
    "isActive": false
  },
  {
    "slug": "morawica",
    "name": "Morawica",
    "province": "świętokrzyskie",
    "lat": 50.74028,
    "lng": 20.613588,
    "isActive": false
  },
  {
    "slug": "morag",
    "name": "Morąg",
    "province": "warmińsko-mazurskie",
    "lat": 53.916959,
    "lng": 19.927579,
    "isActive": false
  },
  {
    "slug": "mordy",
    "name": "Mordy",
    "province": "mazowieckie",
    "lat": 52.207084,
    "lng": 22.510725,
    "isActive": false
  },
  {
    "slug": "moryn",
    "name": "Moryń",
    "province": "zachodniopomorskie",
    "lat": 52.860173,
    "lng": 14.400767,
    "isActive": false
  },
  {
    "slug": "mosina",
    "name": "Mosina",
    "province": "wielkopolskie",
    "lat": 52.247067,
    "lng": 16.850734,
    "isActive": false
  },
  {
    "slug": "mragowo",
    "name": "Mrągowo",
    "province": "warmińsko-mazurskie",
    "lat": 53.86843,
    "lng": 21.298835,
    "isActive": false
  },
  {
    "slug": "mrocza",
    "name": "Mrocza",
    "province": "kujawsko-pomorskie",
    "lat": 53.242414,
    "lng": 17.596957,
    "isActive": false
  },
  {
    "slug": "mrozy",
    "name": "Mrozy",
    "province": "mazowieckie",
    "lat": 52.169747,
    "lng": 21.808386,
    "isActive": false
  },
  {
    "slug": "mszana-dolna",
    "name": "Mszana Dolna",
    "province": "małopolskie",
    "lat": 49.681094,
    "lng": 20.079355,
    "isActive": false
  },
  {
    "slug": "mszczonow",
    "name": "Mszczonów",
    "province": "mazowieckie",
    "lat": 51.977161,
    "lng": 20.532185,
    "isActive": false
  },
  {
    "slug": "murowana-goslina",
    "name": "Murowana Goślina",
    "province": "wielkopolskie",
    "lat": 52.569862,
    "lng": 17.010164,
    "isActive": false
  },
  {
    "slug": "muszyna",
    "name": "Muszyna",
    "province": "małopolskie",
    "lat": 49.347238,
    "lng": 20.910988,
    "isActive": false
  },
  {
    "slug": "myslowice",
    "name": "Mysłowice",
    "province": "śląskie",
    "lat": 50.209618,
    "lng": 19.154582,
    "isActive": false
  },
  {
    "slug": "myszkow",
    "name": "Myszków",
    "province": "śląskie",
    "lat": 50.564663,
    "lng": 19.327018,
    "isActive": false
  },
  {
    "slug": "myszyniec",
    "name": "Myszyniec",
    "province": "mazowieckie",
    "lat": 53.376602,
    "lng": 21.348095,
    "isActive": false
  },
  {
    "slug": "myslenice",
    "name": "Myślenice",
    "province": "małopolskie",
    "lat": 49.82774,
    "lng": 19.936396,
    "isActive": false
  },
  {
    "slug": "mysliborz",
    "name": "Myślibórz",
    "province": "zachodniopomorskie",
    "lat": 52.94417,
    "lng": 14.867663,
    "isActive": false
  },
  {
    "slug": "naklo-nad-notecia",
    "name": "Nakło nad Notecią",
    "province": "kujawsko-pomorskie",
    "lat": 53.141437,
    "lng": 17.601743,
    "isActive": false
  },
  {
    "slug": "naleczow",
    "name": "Nałęczów",
    "province": "lubelskie",
    "lat": 51.281223,
    "lng": 22.212174,
    "isActive": false
  },
  {
    "slug": "namyslow",
    "name": "Namysłów",
    "province": "opolskie",
    "lat": 51.076894,
    "lng": 17.695437,
    "isActive": false
  },
  {
    "slug": "narol",
    "name": "Narol",
    "province": "podkarpackie",
    "lat": 50.346617,
    "lng": 23.30233,
    "isActive": false
  },
  {
    "slug": "nasielsk",
    "name": "Nasielsk",
    "province": "mazowieckie",
    "lat": 52.59377,
    "lng": 20.811773,
    "isActive": false
  },
  {
    "slug": "nekla",
    "name": "Nekla",
    "province": "wielkopolskie",
    "lat": 52.385076,
    "lng": 17.406046,
    "isActive": false
  },
  {
    "slug": "nidzica",
    "name": "Nidzica",
    "province": "warmińsko-mazurskie",
    "lat": 53.363005,
    "lng": 20.42298,
    "isActive": false
  },
  {
    "slug": "niemcza",
    "name": "Niemcza",
    "province": "dolnośląskie",
    "lat": 50.71767,
    "lng": 16.839576,
    "isActive": false
  },
  {
    "slug": "niemodlin",
    "name": "Niemodlin",
    "province": "opolskie",
    "lat": 50.638655,
    "lng": 17.619395,
    "isActive": false
  },
  {
    "slug": "niepolomice",
    "name": "Niepołomice",
    "province": "małopolskie",
    "lat": 50.034395,
    "lng": 20.211898,
    "isActive": false
  },
  {
    "slug": "nieszawa",
    "name": "Nieszawa",
    "province": "kujawsko-pomorskie",
    "lat": 52.839616,
    "lng": 18.886434,
    "isActive": false
  },
  {
    "slug": "nisko",
    "name": "Nisko",
    "province": "podkarpackie",
    "lat": 50.503229,
    "lng": 22.12912,
    "isActive": false
  },
  {
    "slug": "nowa-deba",
    "name": "Nowa Dęba",
    "province": "podkarpackie",
    "lat": 50.424586,
    "lng": 21.754072,
    "isActive": false
  },
  {
    "slug": "nowa-ruda",
    "name": "Nowa Ruda",
    "province": "dolnośląskie",
    "lat": 50.5735,
    "lng": 16.51985,
    "isActive": false
  },
  {
    "slug": "nowa-sarzyna",
    "name": "Nowa Sarzyna",
    "province": "podkarpackie",
    "lat": 50.325445,
    "lng": 22.321497,
    "isActive": false
  },
  {
    "slug": "nowa-slupia",
    "name": "Nowa Słupia",
    "province": "świętokrzyskie",
    "lat": 50.861278,
    "lng": 21.063281,
    "isActive": false
  },
  {
    "slug": "nowa-sol",
    "name": "Nowa Sól",
    "province": "lubuskie",
    "lat": 51.803404,
    "lng": 15.711852,
    "isActive": false
  },
  {
    "slug": "nowe",
    "name": "Nowe",
    "province": "kujawsko-pomorskie",
    "lat": 53.648484,
    "lng": 18.725281,
    "isActive": false
  },
  {
    "slug": "nowe-brzesko",
    "name": "Nowe Brzesko",
    "province": "małopolskie",
    "lat": 50.133027,
    "lng": 20.363119,
    "isActive": false
  },
  {
    "slug": "nowe-miasteczko",
    "name": "Nowe Miasteczko",
    "province": "lubuskie",
    "lat": 51.689877,
    "lng": 15.733585,
    "isActive": false
  },
  {
    "slug": "nowe-miasto",
    "name": "Nowe Miasto",
    "province": "mazowieckie",
    "lat": 52.659502,
    "lng": 20.621719,
    "isActive": false
  },
  {
    "slug": "nowe-miasto-lubawskie",
    "name": "Nowe Miasto Lubawskie",
    "province": "warmińsko-mazurskie",
    "lat": 53.425281,
    "lng": 19.583881,
    "isActive": false
  },
  {
    "slug": "nowe-miasto-nad-pilica",
    "name": "Nowe Miasto nad Pilicą",
    "province": "mazowieckie",
    "lat": 51.624845,
    "lng": 20.56583,
    "isActive": false
  },
  {
    "slug": "nowe-skalmierzyce",
    "name": "Nowe Skalmierzyce",
    "province": "wielkopolskie",
    "lat": 51.708842,
    "lng": 17.996151,
    "isActive": false
  },
  {
    "slug": "nowe-warpno",
    "name": "Nowe Warpno",
    "province": "zachodniopomorskie",
    "lat": 53.715603,
    "lng": 14.312984,
    "isActive": false
  },
  {
    "slug": "nowogard",
    "name": "Nowogard",
    "province": "zachodniopomorskie",
    "lat": 53.671931,
    "lng": 15.118669,
    "isActive": false
  },
  {
    "slug": "nowogrodziec",
    "name": "Nowogrodziec",
    "province": "dolnośląskie",
    "lat": 51.199231,
    "lng": 15.393906,
    "isActive": false
  },
  {
    "slug": "nowogrod",
    "name": "Nowogród",
    "province": "podlaskie",
    "lat": 53.216646,
    "lng": 21.874626,
    "isActive": false
  },
  {
    "slug": "nowogrod-bobrzanski",
    "name": "Nowogród Bobrzański",
    "province": "lubuskie",
    "lat": 51.801866,
    "lng": 15.232221,
    "isActive": false
  },
  {
    "slug": "nowy-dwor-gdanski",
    "name": "Nowy Dwór Gdański",
    "province": "pomorskie",
    "lat": 54.211957,
    "lng": 19.120205,
    "isActive": false
  },
  {
    "slug": "nowy-dwor-mazowiecki",
    "name": "Nowy Dwór Mazowiecki",
    "province": "mazowieckie",
    "lat": 52.434251,
    "lng": 20.69179,
    "isActive": false
  },
  {
    "slug": "nowy-korczyn",
    "name": "Nowy Korczyn",
    "province": "świętokrzyskie",
    "lat": 50.307615,
    "lng": 20.795283,
    "isActive": false
  },
  {
    "slug": "nowy-sacz",
    "name": "Nowy Sącz",
    "province": "małopolskie",
    "lat": 49.61025,
    "lng": 20.706641,
    "isActive": false
  },
  {
    "slug": "nowy-staw",
    "name": "Nowy Staw",
    "province": "pomorskie",
    "lat": 54.138979,
    "lng": 19.009879,
    "isActive": false
  },
  {
    "slug": "nowy-targ",
    "name": "Nowy Targ",
    "province": "małopolskie",
    "lat": 49.489259,
    "lng": 20.042968,
    "isActive": false
  },
  {
    "slug": "nowy-tomysl",
    "name": "Nowy Tomyśl",
    "province": "wielkopolskie",
    "lat": 52.311181,
    "lng": 16.133198,
    "isActive": false
  },
  {
    "slug": "nowy-wisnicz",
    "name": "Nowy Wiśnicz",
    "province": "małopolskie",
    "lat": 49.915098,
    "lng": 20.45088,
    "isActive": false
  },
  {
    "slug": "nysa",
    "name": "Nysa",
    "province": "opolskie",
    "lat": 50.47358,
    "lng": 17.336965,
    "isActive": false
  },
  {
    "slug": "oborniki",
    "name": "Oborniki",
    "province": "wielkopolskie",
    "lat": 52.652699,
    "lng": 16.805314,
    "isActive": false
  },
  {
    "slug": "oborniki-slaskie",
    "name": "Oborniki Śląskie",
    "province": "dolnośląskie",
    "lat": 51.296141,
    "lng": 16.909343,
    "isActive": false
  },
  {
    "slug": "obrzycko",
    "name": "Obrzycko",
    "province": "wielkopolskie",
    "lat": 52.701995,
    "lng": 16.530462,
    "isActive": false
  },
  {
    "slug": "odolanow",
    "name": "Odolanów",
    "province": "wielkopolskie",
    "lat": 51.578072,
    "lng": 17.669912,
    "isActive": false
  },
  {
    "slug": "odrzywol",
    "name": "Odrzywół",
    "province": "mazowieckie",
    "lat": 51.521251,
    "lng": 20.563552,
    "isActive": false
  },
  {
    "slug": "ogrodzieniec",
    "name": "Ogrodzieniec",
    "province": "śląskie",
    "lat": 50.439048,
    "lng": 19.502386,
    "isActive": false
  },
  {
    "slug": "okonek",
    "name": "Okonek",
    "province": "wielkopolskie",
    "lat": 53.528452,
    "lng": 16.853741,
    "isActive": false
  },
  {
    "slug": "olecko",
    "name": "Olecko",
    "province": "warmińsko-mazurskie",
    "lat": 54.036197,
    "lng": 22.49811,
    "isActive": false
  },
  {
    "slug": "olesno",
    "name": "Olesno",
    "province": "opolskie",
    "lat": 50.87599,
    "lng": 18.413042,
    "isActive": false
  },
  {
    "slug": "oleszyce",
    "name": "Oleszyce",
    "province": "podkarpackie",
    "lat": 50.162763,
    "lng": 23.036998,
    "isActive": false
  },
  {
    "slug": "olesnica",
    "name": "Oleśnica",
    "province": "dolnośląskie",
    "lat": 51.210509,
    "lng": 17.386044,
    "isActive": false
  },
  {
    "slug": "olesnica-swietokrzyskie",
    "name": "Oleśnica",
    "province": "świętokrzyskie",
    "lat": 50.445422,
    "lng": 21.065359,
    "isActive": false
  },
  {
    "slug": "olkusz",
    "name": "Olkusz",
    "province": "małopolskie",
    "lat": 50.285722,
    "lng": 19.56178,
    "isActive": false
  },
  {
    "slug": "olsztyn",
    "name": "Olsztyn",
    "province": "warmińsko-mazurskie",
    "lat": 53.776611,
    "lng": 20.466568,
    "isActive": false
  },
  {
    "slug": "olsztyn-slaskie",
    "name": "Olsztyn",
    "province": "śląskie",
    "lat": 50.738666,
    "lng": 19.245722,
    "isActive": false
  },
  {
    "slug": "olsztynek",
    "name": "Olsztynek",
    "province": "warmińsko-mazurskie",
    "lat": 53.587192,
    "lng": 20.28168,
    "isActive": false
  },
  {
    "slug": "olszyna",
    "name": "Olszyna",
    "province": "dolnośląskie",
    "lat": 51.075697,
    "lng": 15.371389,
    "isActive": false
  },
  {
    "slug": "olawa",
    "name": "Oława",
    "province": "dolnośląskie",
    "lat": 50.957452,
    "lng": 17.294202,
    "isActive": false
  },
  {
    "slug": "opalenica",
    "name": "Opalenica",
    "province": "wielkopolskie",
    "lat": 52.313306,
    "lng": 16.413548,
    "isActive": false
  },
  {
    "slug": "opatowiec",
    "name": "Opatowiec",
    "province": "świętokrzyskie",
    "lat": 50.24785,
    "lng": 20.716889,
    "isActive": false
  },
  {
    "slug": "opatow",
    "name": "Opatów",
    "province": "świętokrzyskie",
    "lat": 50.806109,
    "lng": 21.423516,
    "isActive": false
  },
  {
    "slug": "opatowek",
    "name": "Opatówek",
    "province": "wielkopolskie",
    "lat": 51.739097,
    "lng": 18.206038,
    "isActive": false
  },
  {
    "slug": "opoczno",
    "name": "Opoczno",
    "province": "łódzkie",
    "lat": 51.377455,
    "lng": 20.270065,
    "isActive": false
  },
  {
    "slug": "opole",
    "name": "Opole",
    "province": "opolskie",
    "lat": 50.678796,
    "lng": 17.906141,
    "isActive": false
  },
  {
    "slug": "opole-lubelskie",
    "name": "Opole Lubelskie",
    "province": "lubelskie",
    "lat": 51.148592,
    "lng": 21.969693,
    "isActive": false
  },
  {
    "slug": "orneta",
    "name": "Orneta",
    "province": "warmińsko-mazurskie",
    "lat": 54.115875,
    "lng": 20.12634,
    "isActive": false
  },
  {
    "slug": "orzesze",
    "name": "Orzesze",
    "province": "śląskie",
    "lat": 50.108196,
    "lng": 18.794604,
    "isActive": false
  },
  {
    "slug": "orzysz",
    "name": "Orzysz",
    "province": "warmińsko-mazurskie",
    "lat": 53.804085,
    "lng": 21.956866,
    "isActive": false
  },
  {
    "slug": "osieck",
    "name": "Osieck",
    "province": "mazowieckie",
    "lat": 51.98015,
    "lng": 21.423653,
    "isActive": false
  },
  {
    "slug": "osieczna",
    "name": "Osieczna",
    "province": "wielkopolskie",
    "lat": 51.903957,
    "lng": 16.686166,
    "isActive": false
  },
  {
    "slug": "osiek",
    "name": "Osiek",
    "province": "świętokrzyskie",
    "lat": 50.527315,
    "lng": 21.45543,
    "isActive": false
  },
  {
    "slug": "osjakow",
    "name": "Osjaków",
    "province": "łódzkie",
    "lat": 51.294556,
    "lng": 18.805281,
    "isActive": false
  },
  {
    "slug": "ostroleka",
    "name": "Ostrołęka",
    "province": "mazowieckie",
    "lat": 53.07785,
    "lng": 21.600843,
    "isActive": false
  },
  {
    "slug": "ostrorog",
    "name": "Ostroróg",
    "province": "wielkopolskie",
    "lat": 52.624065,
    "lng": 16.45461,
    "isActive": false
  },
  {
    "slug": "ostrowiec-swietokrzyski",
    "name": "Ostrowiec Świętokrzyski",
    "province": "świętokrzyskie",
    "lat": 50.950204,
    "lng": 21.406432,
    "isActive": false
  },
  {
    "slug": "ostroda",
    "name": "Ostróda",
    "province": "warmińsko-mazurskie",
    "lat": 53.70278,
    "lng": 19.95299,
    "isActive": false
  },
  {
    "slug": "ostrow-lubelski",
    "name": "Ostrów Lubelski",
    "province": "lubelskie",
    "lat": 51.491182,
    "lng": 22.846187,
    "isActive": false
  },
  {
    "slug": "ostrow-mazowiecka",
    "name": "Ostrów Mazowiecka",
    "province": "mazowieckie",
    "lat": 52.807089,
    "lng": 21.891092,
    "isActive": false
  },
  {
    "slug": "ostrow-wielkopolski",
    "name": "Ostrów Wielkopolski",
    "province": "wielkopolskie",
    "lat": 51.646877,
    "lng": 17.803984,
    "isActive": false
  },
  {
    "slug": "ostrzeszow",
    "name": "Ostrzeszów",
    "province": "wielkopolskie",
    "lat": 51.4244,
    "lng": 17.932339,
    "isActive": false
  },
  {
    "slug": "osno-lubuskie",
    "name": "Ośno Lubuskie",
    "province": "lubuskie",
    "lat": 52.456171,
    "lng": 14.871481,
    "isActive": false
  },
  {
    "slug": "oswiecim",
    "name": "Oświęcim",
    "province": "małopolskie",
    "lat": 50.033318,
    "lng": 19.256152,
    "isActive": false
  },
  {
    "slug": "otmuchow",
    "name": "Otmuchów",
    "province": "opolskie",
    "lat": 50.466326,
    "lng": 17.153492,
    "isActive": false
  },
  {
    "slug": "otwock",
    "name": "Otwock",
    "province": "mazowieckie",
    "lat": 52.116088,
    "lng": 21.289344,
    "isActive": false
  },
  {
    "slug": "otyn",
    "name": "Otyń",
    "province": "lubuskie",
    "lat": 51.854363,
    "lng": 15.718259,
    "isActive": false
  },
  {
    "slug": "ozimek",
    "name": "Ozimek",
    "province": "opolskie",
    "lat": 50.673461,
    "lng": 18.213068,
    "isActive": false
  },
  {
    "slug": "ozorkow",
    "name": "Ozorków",
    "province": "łódzkie",
    "lat": 51.958695,
    "lng": 19.29671,
    "isActive": false
  },
  {
    "slug": "ozarow",
    "name": "Ożarów",
    "province": "świętokrzyskie",
    "lat": 50.886382,
    "lng": 21.666789,
    "isActive": false
  },
  {
    "slug": "ozarow-mazowiecki",
    "name": "Ożarów Mazowiecki",
    "province": "mazowieckie",
    "lat": 52.213747,
    "lng": 20.802953,
    "isActive": false
  },
  {
    "slug": "pabianice",
    "name": "Pabianice",
    "province": "łódzkie",
    "lat": 51.665742,
    "lng": 19.354854,
    "isActive": false
  },
  {
    "slug": "pacanow",
    "name": "Pacanów",
    "province": "świętokrzyskie",
    "lat": 50.403482,
    "lng": 21.038312,
    "isActive": false
  },
  {
    "slug": "paczkow",
    "name": "Paczków",
    "province": "opolskie",
    "lat": 50.466433,
    "lng": 17.003902,
    "isActive": false
  },
  {
    "slug": "pajeczno",
    "name": "Pajęczno",
    "province": "łódzkie",
    "lat": 51.135647,
    "lng": 18.99793,
    "isActive": false
  },
  {
    "slug": "pakosc",
    "name": "Pakość",
    "province": "kujawsko-pomorskie",
    "lat": 52.805392,
    "lng": 18.086421,
    "isActive": false
  },
  {
    "slug": "parczew",
    "name": "Parczew",
    "province": "lubelskie",
    "lat": 51.638762,
    "lng": 22.893066,
    "isActive": false
  },
  {
    "slug": "parzeczew",
    "name": "Parzęczew",
    "province": "łódzkie",
    "lat": 51.944802,
    "lng": 19.202056,
    "isActive": false
  },
  {
    "slug": "paslek",
    "name": "Pasłęk",
    "province": "warmińsko-mazurskie",
    "lat": 54.061323,
    "lng": 19.666834,
    "isActive": false
  },
  {
    "slug": "pasym",
    "name": "Pasym",
    "province": "warmińsko-mazurskie",
    "lat": 53.650386,
    "lng": 20.794561,
    "isActive": false
  },
  {
    "slug": "pelplin",
    "name": "Pelplin",
    "province": "pomorskie",
    "lat": 53.925847,
    "lng": 18.700157,
    "isActive": false
  },
  {
    "slug": "pelczyce",
    "name": "Pełczyce",
    "province": "zachodniopomorskie",
    "lat": 53.046892,
    "lng": 15.297384,
    "isActive": false
  },
  {
    "slug": "piaseczno",
    "name": "Piaseczno",
    "province": "mazowieckie",
    "lat": 52.073475,
    "lng": 21.017137,
    "isActive": false
  },
  {
    "slug": "piaski",
    "name": "Piaski",
    "province": "lubelskie",
    "lat": 51.12793,
    "lng": 22.837384,
    "isActive": false
  },
  {
    "slug": "piastow",
    "name": "Piastów",
    "province": "mazowieckie",
    "lat": 52.185566,
    "lng": 20.846304,
    "isActive": false
  },
  {
    "slug": "piatek",
    "name": "Piątek",
    "province": "łódzkie",
    "lat": 52.076357,
    "lng": 19.466019,
    "isActive": false
  },
  {
    "slug": "piechowice",
    "name": "Piechowice",
    "province": "dolnośląskie",
    "lat": 50.827738,
    "lng": 15.587755,
    "isActive": false
  },
  {
    "slug": "piekary-slaskie",
    "name": "Piekary Śląskie",
    "province": "śląskie",
    "lat": 50.375829,
    "lng": 18.978013,
    "isActive": false
  },
  {
    "slug": "piekoszow",
    "name": "Piekoszów",
    "province": "świętokrzyskie",
    "lat": 50.875945,
    "lng": 20.464647,
    "isActive": false
  },
  {
    "slug": "pieniezno",
    "name": "Pieniężno",
    "province": "warmińsko-mazurskie",
    "lat": 54.234944,
    "lng": 20.120269,
    "isActive": false
  },
  {
    "slug": "piensk",
    "name": "Pieńsk",
    "province": "dolnośląskie",
    "lat": 51.250515,
    "lng": 15.056191,
    "isActive": false
  },
  {
    "slug": "pierzchnica",
    "name": "Pierzchnica",
    "province": "świętokrzyskie",
    "lat": 50.700588,
    "lng": 20.762521,
    "isActive": false
  },
  {
    "slug": "pieszyce",
    "name": "Pieszyce",
    "province": "dolnośląskie",
    "lat": 50.708232,
    "lng": 16.586813,
    "isActive": false
  },
  {
    "slug": "pilawa",
    "name": "Pilawa",
    "province": "mazowieckie",
    "lat": 51.961273,
    "lng": 21.532314,
    "isActive": false
  },
  {
    "slug": "pilica",
    "name": "Pilica",
    "province": "śląskie",
    "lat": 50.467738,
    "lng": 19.649514,
    "isActive": false
  },
  {
    "slug": "pilzno",
    "name": "Pilzno",
    "province": "podkarpackie",
    "lat": 49.974569,
    "lng": 21.283378,
    "isActive": false
  },
  {
    "slug": "pila",
    "name": "Piła",
    "province": "wielkopolskie",
    "lat": 53.134895,
    "lng": 16.760176,
    "isActive": false
  },
  {
    "slug": "pilawa-gorna",
    "name": "Piława Górna",
    "province": "dolnośląskie",
    "lat": 50.682876,
    "lng": 16.755003,
    "isActive": false
  },
  {
    "slug": "pinczow",
    "name": "Pińczów",
    "province": "świętokrzyskie",
    "lat": 50.514898,
    "lng": 20.53109,
    "isActive": false
  },
  {
    "slug": "pionki",
    "name": "Pionki",
    "province": "mazowieckie",
    "lat": 51.471773,
    "lng": 21.447539,
    "isActive": false
  },
  {
    "slug": "piotrkow-kujawski",
    "name": "Piotrków Kujawski",
    "province": "kujawsko-pomorskie",
    "lat": 52.545015,
    "lng": 18.496857,
    "isActive": false
  },
  {
    "slug": "piotrkow-trybunalski",
    "name": "Piotrków Trybunalski",
    "province": "łódzkie",
    "lat": 51.412893,
    "lng": 19.716577,
    "isActive": false
  },
  {
    "slug": "pisz",
    "name": "Pisz",
    "province": "warmińsko-mazurskie",
    "lat": 53.627311,
    "lng": 21.809603,
    "isActive": false
  },
  {
    "slug": "piszczac",
    "name": "Piszczac",
    "province": "lubelskie",
    "lat": 51.978993,
    "lng": 23.380833,
    "isActive": false
  },
  {
    "slug": "piwniczna-zdroj",
    "name": "Piwniczna-Zdrój",
    "province": "małopolskie",
    "lat": 49.432561,
    "lng": 20.672414,
    "isActive": false
  },
  {
    "slug": "pleszew",
    "name": "Pleszew",
    "province": "wielkopolskie",
    "lat": 51.894007,
    "lng": 17.786438,
    "isActive": false
  },
  {
    "slug": "plock",
    "name": "Płock",
    "province": "mazowieckie",
    "lat": 52.535415,
    "lng": 19.71497,
    "isActive": false
  },
  {
    "slug": "plonsk",
    "name": "Płońsk",
    "province": "mazowieckie",
    "lat": 52.626472,
    "lng": 20.363008,
    "isActive": false
  },